,식당명,별점,구,주소,음식종류,가격대,리뷰날짜,리뷰평가,리뷰수,맛있다수,괜찮다수,별로다수,평점,위도,경도,인접역,인접역까지의거리
0,뽀르께노 스페니쉬비스트로,4.6,성북구, 서울특별시 성북구 동소문로6길 4-21 1F,다국적음식, 만원-2만원,2022-07-22,맛있다,7.0,7.0,0.0,0.0,4.6,37.5880182,127.0087053,성신여대입구,0.41276631707813644
1,성북동집,4.5,성북구, 서울특별시 성북구 성북로24길 4,한식, 만원-2만원,2022-07-28,맛있다,41.0,35.0,6.0,0.0,3.841463414634146,37.5948125,126.9960915,성신여대입구,1.330799136744833
2,계모임,4.5,성북구, 서울특별시 성북구 보문로30라길 5-10 1F,한식, 만원-2만원,5 일 전,맛있다,10.0,10.0,0.0,0.0,4.5,37.5898438,127.0189176,한성대입구,0.409767739829964
3,옥돌,4.5,성북구, 서울특별시 성북구 동소문로17길 11,양식, 만원-2만원,2022-07-18,맛있다,5.0,5.0,0.0,0.0,4.5,37.5939992,127.0158225,한성대입구,0.4371593999744033
4,우정초밥,4.4,성북구, 서울특별시 성북구 종암로3길 31 1F,일식, 2만원-3만원,2022-06-18,맛있다,31.0,28.0,3.0,0.0,3.974193548387097,37.5929233,127.0335228,청량리,0.666401568128446
5,일흥콩나물국밥,4.4,성북구, 서울특별시 성북구 고려대로5길 77,한식, 만원 미만,2022-05-16,맛있다,11.0,11.0,0.0,0.0,4.4,37.5877852,127.0195915,한성대입구,0.5415656954377372
6,드시소,4.4,성북구, 서울특별시 성북구 보국문로 86-3 1F,주점, 2만원-3만원,2022-05-15,맛있다,8.0,8.0,0.0,0.0,4.4,37.6098532,127.009535,길음,1.465725075071484
7,마실참숯불생고기집,4.4,성북구, 서울특별시 성북구 종암로38길 41-2,한식, 만원-2만원,2022-07-21,맛있다,7.0,7.0,0.0,0.0,4.4,37.6064895,127.0329143,길음,0.9046402506003509
8,바람난오리궁뎅이,4.3,성북구, 서울특별시 성북구 보국문로29길 15,한식, 2만원-3만원,2021-07-30,맛있다,19.0,18.0,1.0,0.0,4.073684210526316,37.6158371,127.0016566,길음,2.4142672461078885
9,영순관,4.3,성북구, 서울특별시 성북구 지봉로24길 19,중식, 만원 미만,2022-01-30,맛있다,9.0,8.0,1.0,0.0,3.822222222222222,37.5832219,127.0198906,한성대입구,0.9247384128203119
10,밀곳간,4.3,성북구, 서울특별시 성북구 성북로18길 19,카페/디저트, 만원 미만,2022-08-02,맛있다,14.0,14.0,0.0,0.0,4.3,37.593839,126.9996411,성신여대입구,1.0003214447064244
11,참나무닭나라,4.3,성북구, 서울특별시 성북구 동소문로8길 12,한식, 만원 미만,2022-03-23,맛있다,18.0,17.0,0.0,1.0,3.583333333333333,37.5894796,127.009717,성신여대입구,0.22880201827348312
12,토로생선구이,4.3,성북구, 서울특별시 성북구 고려대로28길 14-1,한식, 만원-2만원,2022-03-31,맛있다,10.0,9.0,1.0,0.0,3.87,37.5856039,127.0308717,신설동,0.8499870751091143
13,동병상련,4.2,성북구, 서울특별시 성북구 정릉로10길 42-6,카페/디저트, 만원 미만,2022-04-24,맛있다,7.0,7.0,0.0,0.0,4.2,37.6079962,127.0016431,성신여대입구,2.004074098986351
14,임금님자장면,4.2,성북구, 서울특별시 성북구 보국문로 91,중식, 만원 미만,2022-06-29,맛있다,12.0,10.0,2.0,0.0,3.5,37.6098532,127.009535,길음,1.465725075071484
15,일상,4.1,성북구, 서울특별시 성북구 성북로 106,카페/디저트, 만원 미만,2022-05-22,맛있다,28.0,26.0,1.0,1.0,3.5142857142857142,37.5930731,126.9984423,성신여대입구,1.0848091712086565
16,병과점임오반,4.1,성북구, 서울특별시 성북구 동소문로17길 27 102호,카페/디저트, 만원 미만,2022-06-02,맛있다,11.0,11.0,0.0,0.0,4.1,37.5939992,127.0158225,한성대입구,0.4371593999744033
17,샤뽀블랑,4.1,성북구, 서울특별시 성북구 성북로 60,카페/디저트, 만원 미만,2022-07-31,맛있다,19.0,17.0,2.0,0.0,3.668421052631578,37.5930731,126.9984423,성신여대입구,1.0848091712086565
18,디프커피,4.1,성북구, 서울특별시 성북구 동소문로26가길 56,카페/디저트, 만원 미만,2021-04-20,맛있다,7.0,6.0,1.0,0.0,3.514285714285714,37.5944112,127.0197325,한성대입구,0.6653115987869626
19,바테일러,4.1,성북구, 서울특별시 성북구 아리랑로2길 23,주점, 2만원-3만원,2022-05-29,괜찮다,9.0,8.0,1.0,0.0,3.644444444444444,37.5932042,127.01676,한성대입구,0.39295652915959506
20,백두산양꼬치구이,4.0,성북구, 서울특별시 성북구 동소문로20다길 24,중식, 만원-2만원,2021-05-13,맛있다,27.0,24.0,3.0,0.0,3.555555555555556,37.5917592,127.0173702,한성대입구,0.3181156711261577
21,모던양갱집,4.0,성북구, 서울특별시 성북구 보국문로16길 72,카페/디저트, 만원 미만,2022-05-13,맛있다,8.0,7.0,1.0,0.0,3.5,37.6105861,127.0095173,길음,1.5114625593452196
22,장수식당,3.9,성북구, 서울특별시 성북구 정릉로26길 55,한식, 만원 미만,2022-07-13,맛있다,6.0,6.0,0.0,0.0,3.9,37.6046632,127.0109432,길음,1.1392031758430785
23,슬로우브레드파파,3.9,성북구, 서울특별시 성북구 보문로30나길 29,카페/디저트, 만원 미만,2021-07-21,맛있다,12.0,11.0,1.0,0.0,3.575,37.5897258,127.0202542,한성대입구,0.5282651676686646
24,이립스,4.6,성북구, 서울특별시 성북구 인촌로7길 84-7,카페/디저트, 만원 미만,2021-11-20,맛있다,11.0,11.0,0.0,0.0,4.6,0.0,0.0,개화,13158.583793832535
25,시키카츠,4.7,동대문구, 서울특별시 동대문구 회기로 110,일식, 만원-2만원,2022-07-26,맛있다,65.0,54.0,9.0,2.0,3.615384615384616,37.5899435,127.0567032,회기,0.11953892514495133
26,육전식당,4.4,동대문구, 서울특별시 동대문구 난계로30길 16,한식, 만원-2만원,2022-08-01,맛있다,196.0,166.0,26.0,4.0,3.5469387755102044,37.5739768,127.0252127,동묘앞,0.7587109823585143
27,슈퍼내추럴,4.4,동대문구, 서울특별시 동대문구 전농로23길 78 1F,카페/디저트, 만원 미만,2022-04-24,맛있다,7.0,7.0,0.0,0.0,4.4,37.5793764,127.0538865,회기,1.204444278182614
28,연어이야기,4.4,동대문구, 서울특별시 동대문구 고산자로 528-1,일식, 만원-2만원,2021-05-22,맛있다,17.0,16.0,0.0,1.0,3.6235294117647054,37.5781921,127.0383566,신설동,0.20689004732604213
29,스시코야,4.3,동대문구, 서울특별시 동대문구 황물로 42 1F,일식, 2만원-3만원,1 일 전,맛있다,11.0,9.0,2.0,0.0,3.5181818181818176,37.5710005,127.0496624,마장,0.8013101020385571
30,골목길빵공작소,4.3,동대문구, 서울특별시 동대문구 답십리로60길 112 1F,카페/디저트, 만원 미만,2022-08-05,맛있다,16.0,16.0,0.0,0.0,4.3,37.5675347,127.0618732,답십리,0.531878559333711
31,대흥설농탕,4.3,동대문구, 서울특별시 동대문구 한천로 60,한식, 만원-2만원,2022-06-07,맛있다,9.0,8.0,1.0,0.0,3.822222222222222,37.5698629,127.0644296,장한평,0.8703309912351014
32,비나,4.3,동대문구, 서울특별시 동대문구 안암로24길 4,다국적음식, 만원 미만,2022-03-08,맛있다,34.0,30.0,3.0,1.0,3.541176470588235,37.5882208,127.0361111,청량리,0.5116509902286527
33,촨커,4.3,동대문구, 서울특별시 동대문구 이문로9길 105,중식, 만원-2만원,2022-06-30,맛있다,30.0,26.0,4.0,0.0,3.7266666666666666,37.5959387,127.0570525,외대앞,0.530132373812598
34,커피그라운즈,4.2,동대문구, 서울특별시 동대문구 답십리로48길 57,카페/디저트, 만원 미만,9 시간 전,맛있다,25.0,23.0,2.0,0.0,3.864,37.5683314,127.0577213,답십리,0.5173846405379173
35,이문동커피집,4.2,동대문구, 서울특별시 동대문구 이문로25길 39 1F,카페/디저트, 만원 미만,2022-06-30,맛있다,40.0,37.0,3.0,0.0,3.885,37.5955379,127.058147,외대앞,0.4302423686300593
36,답십리별미,4.2,동대문구, 서울특별시 동대문구 답십리로48길 98,한식, 만원 미만,2022-07-30,맛있다,11.0,10.0,1.0,0.0,3.8181818181818175,37.5683314,127.0577213,답십리,0.5173846405379173
37,포레스티,4.2,동대문구, 서울특별시 동대문구 이문로9나길 32,양식, 만원 미만,2022-07-02,맛있다,26.0,22.0,4.0,0.0,3.553846153846154,37.5976347,127.0565904,외대앞,0.6207712693554982
38,알로하올라,4.2,동대문구, 서울특별시 동대문구 회기로 133-1 1F,카페/디저트, 만원 미만,2022-06-03,맛있다,7.0,6.0,1.0,0.0,3.6000000000000005,37.5899435,127.0567032,회기,0.11953892514495133
39,백정스테이크바,4.1,동대문구, 서울특별시 동대문구 망우로 122-10,양식, 2만원-3만원,2021-05-09,맛있다,7.0,6.0,1.0,0.0,3.514285714285714,37.5882294,127.0538827,회기,0.3999061347625332
40,씨위드커피,4.1,동대문구, 서울특별시 동대문구 회기로25길 59 1F,카페/디저트, 만원 미만,2022-06-09,맛있다,6.0,6.0,0.0,0.0,4.1,37.5913346,127.0545902,회기,0.35300169627457056
41,양자호떡,4.0,동대문구, 서울특별시 동대문구 회기로 161 1F,카페/디저트, 만원 미만,2022-03-08,맛있다,18.0,16.0,2.0,0.0,3.555555555555556,37.5899435,127.0567032,회기,0.11953892514495133
42,에잇올리,4.0,동대문구, 서울특별시 동대문구 경희대로6길 3-2 1F,양식, 만원 미만,2022-05-25,맛있다,9.0,8.0,1.0,0.0,3.555555555555556,37.5928649,127.0534219,제기동,0.2922972476267733
43,티하우스나니,4.3,중랑구, 서울특별시 중랑구 용마산로117길 26 102호,카페/디저트, 만원 미만,2022-02-21,맛있다,20.0,20.0,0.0,0.0,4.3,37.6001354,127.0986158,망우,0.6739021985362675
44,용마해장국,4.3,중랑구, 서울특별시 중랑구 용마공원로5길 8,한식, 만원 미만,2022-05-05,맛있다,11.0,11.0,0.0,0.0,4.3,37.5946518,127.1023281,망우,1.1091001551890107
45,숯불닭갈비에 반하닭,4.7,중랑구, 서울특별시 중랑구 면목로 352 1F,한식, 만원-2만원,2020-11-08,맛있다,18.0,17.0,1.0,0.0,4.438888888888889,37.5963518,127.0855162,상봉,0.03771427650332673
46,연희미식,4.8,서대문구, 서울특별시 서대문구 연희맛로 22 삼원빌딩,다국적음식, 만원-2만원,2022-07-29,맛있다,41.0,36.0,5.0,0.0,4.214634146341463,37.5681511,126.9309717,가좌,1.3984603324306142
47,메노,4.7,서대문구, 서울특별시 서대문구 연희로26가길 15,양식, 만원-2만원,2022-07-16,맛있다,14.0,13.0,1.0,0.0,4.364285714285715,37.5741935,126.9368854,무악재,1.5970713861442984
48,쿳사,4.6,서대문구, 서울특별시 서대문구 증가로 48 상가 1F 103호,양식, 만원-2만원,2022-07-04,맛있다,17.0,17.0,0.0,0.0,4.6,37.5734785,126.9280063,무악재,0.9635378598232319
49,정리의밤,4.6,서대문구, 서울특별시 서대문구 연희맛로 31-10,주점, 2만원-3만원,2022-08-01,맛있다,7.0,7.0,0.0,0.0,4.6,37.5681511,126.9309717,가좌,1.3984603324306142
50,스탠바이키친,4.5,서대문구, 서울특별시 서대문구 연대동문길 49,양식, 만원 미만,2022-06-19,맛있다,149.0,128.0,17.0,4.0,3.624161073825504,37.565171,126.9453007,이대,0.9377965103722823
51,센트그릴 BBQ,4.5,서대문구, 서울특별시 서대문구 연희로 89-3 B1,양식, 만원-2만원,2022-04-29,맛있다,41.0,34.0,7.0,0.0,3.731707317073171,37.5809227,126.9361647,홍제,1.1167589816485448
52,롱보트스모커,4.5,서대문구, 서울특별시 서대문구 증가로 27 1F,양식, 만원 미만,2022-06-20,맛있다,9.0,9.0,0.0,0.0,4.5,37.5734785,126.9280063,무악재,0.9635378598232319
53,천진분식,4.4,서대문구, 서울특별시 서대문구 이화여대5길 7,중식, 만원 미만,2022-05-13,맛있다,38.0,31.0,7.0,0.0,3.5894736842105264,37.5583611,126.9446118,이대,0.2102767091241902
54,락희안,4.4,서대문구, 서울특별시 서대문구 가재울로4길 53,중식, 만원 미만,2022-04-28,맛있다,18.0,17.0,1.0,0.0,4.155555555555556,37.5755786,126.9233804,무악재,0.5164379081727549
55,폴앤폴리나,4.4,서대문구, 서울특별시 서대문구 연희로11길 56,카페/디저트, 만원 미만,2022-08-07,맛있다,33.0,33.0,0.0,0.0,4.4,37.5680267,126.9295435,가좌,1.2737227285653148
56,책바,4.4,서대문구, 서울특별시 서대문구 연희맛로 24 101호,주점, 만원-2만원,2022-01-22,맛있다,26.0,25.0,1.0,0.0,4.230769230769232,37.5681511,126.9309717,가좌,1.3984603324306142
57,연남장,4.4,서대문구, 서울특별시 서대문구 연희로5길 22 1F,카페/디저트, 만원-2만원,2022-06-21,맛있다,20.0,18.0,2.0,0.0,3.96,37.5658427,126.9267829,홍대입구,1.0505161626981099
58,떼뮤즐렛,4.4,서대문구, 서울특별시 서대문구 연희맛로 24 2F,주점, 만원-2만원,2022-08-04,맛있다,26.0,26.0,0.0,0.0,4.4,37.5681511,126.9309717,가좌,1.3984603324306142
59,다이닝후,4.4,서대문구, 서울특별시 서대문구 충정로 43-1,양식, 2만원-3만원,2022-06-28,맛있다,9.0,8.0,1.0,0.0,3.911111111111112,37.5593715,126.9629108,서대문,0.7841122903832828
60,인생이막창이네,4.4,서대문구, 서울특별시 서대문구 연세로7안길 51 1F,한식, 만원-2만원,2022-06-12,맛있다,17.0,16.0,1.0,0.0,4.141176470588236,37.558113,126.9359777,신촌,0.3129559436503277
61,크래프트비어칸,4.3,서대문구, 서울특별시 서대문구 연희로11길 7,주점, 만원-2만원,2022-06-16,맛있다,25.0,23.0,2.0,0.0,3.956,37.5680267,126.9295435,가좌,1.2737227285653148
62,위드미치코,4.3,서대문구, 서울특별시 서대문구 충정로4길 20,주점, 만원-2만원,2022-07-17,맛있다,29.0,26.0,3.0,0.0,3.855172413793104,37.5600063,126.9645013,서대문,0.6682932514878289
63,심플리키친,4.3,서대문구, 서울특별시 서대문구 이화여대5길 35 107호,한식, 만원 미만,2022-05-18,맛있다,33.0,28.0,5.0,0.0,3.648484848484848,37.5583611,126.9446118,이대,0.2102767091241902
64,바코드,4.3,서대문구, 서울특별시 서대문구 연세로9길 26,주점, 만원-2만원,2022-05-08,맛있다,27.0,24.0,2.0,1.0,3.5037037037037035,37.5588649,126.934065,아현,0.3829054926677464
65,탭스터,4.3,서대문구, 서울특별시 서대문구 증가로 1 103호,주점, 만원-2만원,2022-07-29,맛있다,17.0,16.0,1.0,0.0,4.047058823529412,37.5734785,126.9280063,무악재,0.9635378598232319
66,여래여거,4.3,서대문구, 서울특별시 서대문구 이화여대길 56-3 1F,일식, 4만원 이상,2022-03-04,맛있다,6.0,6.0,0.0,0.0,4.3,37.5591281,126.9429083,이대,0.3709714038296454
67,고바우집,4.3,서대문구, 서울특별시 서대문구 명물1길 22,한식, 만원-2만원,2022-07-14,맛있다,11.0,10.0,1.0,0.0,3.909090909090909,37.5585763,126.937609,신촌,0.40680145747695956
68,화명당마라탕,4.3,서대문구, 서울특별시 서대문구 이화여대길 78,중식, 만원 미만,2022-08-06,맛있다,26.0,25.0,1.0,0.0,4.134615384615385,37.5591281,126.9429083,이대,0.3709714038296454
69,아콘스톨,4.3,서대문구, 서울특별시 서대문구 신촌역로 17 110호,한식, 만원 미만,2022-07-29,맛있다,12.0,10.0,2.0,0.0,3.583333333333333,37.5588347,126.9426887,이대,0.3631309190742006
70,제주도그릴,4.3,서대문구, 서울특별시 서대문구 연희로 89,한식, 만원-2만원,2022-07-29,맛있다,14.0,13.0,1.0,0.0,3.992857142857143,37.5809227,126.9361647,홍제,1.1167589816485448
71,코블러 연희,4.3,서대문구, 서울특별시 서대문구 연희맛로 31-9,주점, 2만원-3만원,2022-07-18,맛있다,7.0,7.0,0.0,0.0,4.3,37.5681511,126.9309717,가좌,1.3984603324306142
72,연희동양꼬치,4.3,서대문구, 서울특별시 서대문구 연희로 81-5,중식, 만원-2만원,2022-06-26,맛있다,8.0,7.0,1.0,0.0,3.7625,37.5809227,126.9361647,홍제,1.1167589816485448
73,아저씨네낙지찜,4.3,서대문구, 서울특별시 서대문구 연세로5다길 39,기타, 만원-2만원,2022-08-09,맛있다,6.0,5.0,1.0,0.0,3.583333333333333,37.5566201,126.9343154,아현,0.14139931914465056
74,비하인드리메인,4.2,서대문구, 서울특별시 서대문구 연희로11라길 10-6 101호,카페/디저트, 만원 미만,2022-04-30,맛있다,32.0,27.0,5.0,0.0,3.54375,37.5700795,126.928127,가좌,1.1536505906892545
75,맛있는집,4.2,서대문구, 서울특별시 서대문구 거북골로20길 55,한식, 만원 미만,2022-05-05,맛있다,25.0,24.0,0.0,1.0,3.696,37.5799311,126.9105797,무악재,0.8304023691824852
76,요릿집,4.2,서대문구, 서울특별시 서대문구 연희맛로 36 1F,한식, 2만원-3만원,2022-07-07,맛있다,6.0,5.0,1.0,0.0,3.5,37.5681511,126.9309717,가좌,1.3984603324306142
77,엔타로커피,4.2,서대문구, 서울특별시 서대문구 명물길 37,카페/디저트, 만원 미만,2022-07-29,맛있다,7.0,7.0,0.0,0.0,4.2,37.5580945,126.9381019,신촌,0.38433017833245015
78,이세계는놀이터예요,4.2,서대문구, 서울특별시 서대문구 이화여대길 88-15 1F 2호,양식, 만원 미만,2021-08-23,맛있다,8.0,8.0,0.0,0.0,4.2,37.5591281,126.9429083,이대,0.3709714038296454
79,피망과토마토,4.1,서대문구, 서울특별시 서대문구 명물길 27-21 6F,주점, 만원-2만원,2022-06-10,맛있다,19.0,17.0,2.0,0.0,3.668421052631578,37.5580945,126.9381019,신촌,0.38433017833245015
80,아이덴티티커피랩,4.1,서대문구, 서울특별시 서대문구 모래내로 390 1F,카페/디저트, 만원 미만,2022-08-08,괜찮다,8.0,7.0,1.0,0.0,3.5874999999999995,37.57917,126.93256,무악재,1.1092116366952758
81,로실링,4.1,서대문구, 서울특별시 서대문구 연세로4길 26,주점, 만원-2만원,2022-01-28,괜찮다,29.0,25.0,4.0,0.0,3.534482758620689,37.5586029,126.9404562,이대,0.518911143295597
82,카페위검,4.1,서대문구, 서울특별시 서대문구 연희로11가길 8 2F,카페/디저트, 만원 미만,2022-05-06,맛있다,5.0,5.0,0.0,0.0,4.1,37.5669515,126.9281966,가좌,1.1709403286073106
83,연탄생고기집,4.1,서대문구, 서울특별시 서대문구 홍제천로 76,한식, 만원-2만원,2022-05-23,맛있다,7.0,7.0,0.0,0.0,4.1,37.5688358,126.9188198,가좌,0.3252695065194774
84,진돈부리,4.1,서대문구, 서울특별시 서대문구 신촌로 149 신촌자이엘라 B104,일식, 만원 미만,2022-03-26,맛있다,7.0,7.0,0.0,0.0,4.1,37.5553748,126.9375073,신촌,0.17758902158587206
85,백색소음,4.0,서대문구, 서울특별시 서대문구 연희로 38-12,주점, 만원-2만원,2021-12-19,맛있다,11.0,10.0,1.0,0.0,3.636363636363636,37.5809227,126.9361647,홍제,1.1167589816485448
86,에뚜왈,4.0,서대문구, 서울특별시 서대문구 충정로4길 28,카페/디저트, 만원 미만,4 일 전,맛있다,10.0,9.0,1.0,0.0,3.6,37.5600063,126.9645013,서대문,0.6682932514878289
87,야채를담다,4.0,서대문구, 서울특별시 서대문구 신촌역로 22-5 2F 51호,카페/디저트, 만원 미만,2021-06-02,맛있다,18.0,18.0,0.0,0.0,4.0,37.5588347,126.9426887,이대,0.3631309190742006
88,배바위양곱창,4.0,서대문구, 서울특별시 서대문구 연세로7안길 42,한식, 2만원-3만원,2021-07-03,괜찮다,9.0,8.0,1.0,0.0,3.555555555555556,37.558113,126.9359777,신촌,0.3129559436503277
89,세아마라탕,4.0,서대문구, 서울특별시 서대문구 이화여대길 16,중식, 만원 미만,2021-05-10,맛있다,8.0,7.0,1.0,0.0,3.5,37.5591281,126.9429083,이대,0.3709714038296454
90,1987피자,3.9,서대문구, 서울특별시 서대문구 연세로11길 26 B1,양식, 만원 미만,2020-12-10,맛있다,22.0,21.0,1.0,0.0,3.722727272727272,37.5589616,126.9363464,신촌,0.4113204399700177
91,카와카츠,4.8,마포구, 서울특별시 마포구 양화로 78-7 1F,일식, 만원-2만원,2022-08-10,맛있다,62.0,57.0,5.0,0.0,4.412903225806451,37.548834,126.9119913,홍대입구,1.3511332668210474
92,야키토리나루토,4.8,마포구, 서울특별시 마포구 독막로9길 26,일식, 만원-2만원,4 일 전,맛있다,22.0,22.0,0.0,0.0,4.8,37.5494047,126.9201233,홍대입구,0.8715144865677035
93,파델라,4.8,마포구, 서울특별시 마포구 연남로1길 11 1F,양식, 만원-2만원,2022-08-08,괜찮다,54.0,47.0,7.0,0.0,4.177777777777778,37.5597486,126.9207013,홍대입구,0.4241603200840113
94,카와카츠,4.7,마포구, 서울특별시 마포구 동교로 126 1F 102호,일식, 만원-2만원,2 일 전,맛있다,182.0,156.0,18.0,8.0,3.615384615384616,37.5580021,126.9230374,홍대입구,0.1512383862877554
95,쉐시몽,4.7,마포구, 서울특별시 마포구 월드컵로10길 48 동궁빌딩 1F,다국적음식, 4만원 이상,2022-06-11,맛있다,43.0,42.0,0.0,1.0,4.372093023255815,37.555019,126.9133425,홍대입구,0.9276036895959846
96,코바시,4.7,마포구, 서울특별시 마포구 양화로1길 25-3,일식, 4만원 이상,2022-08-01,맛있다,11.0,10.0,1.0,0.0,4.2727272727272725,37.5521333,126.9081532,홍대입구,1.457874520567332
97,라바즈,4.7,마포구, 서울특별시 마포구 월드컵로13길 19-23 2F,카페/디저트, 만원 미만,5 일 전,맛있다,30.0,29.0,1.0,0.0,4.543333333333334,37.5554162,126.9078758,홍대입구,1.397440384135235
98,로랑 (휴업중),4.7,마포구, 서울특별시 마포구 성지1길 15 1F,일식, 3만원-4만원,2022-05-28,맛있다,12.0,12.0,0.0,0.0,4.7,37.5477105,126.9141863,홍대입구,1.3040329234843762
99,진만두,4.6,마포구, 서울특별시 마포구 와우산로29길 4-42,중식, 만원 미만,2022-08-04,괜찮다,267.0,229.0,27.0,11.0,3.5662921348314605,37.5554122,126.9280305,홍대입구,0.41364848210835575
100,당도,4.6,마포구, 서울특별시 마포구 포은로 106,카페/디저트, 만원 미만,2022-07-29,맛있다,250.0,228.0,19.0,3.0,4.0848,37.5562777,126.9047718,홍대입구,1.6641603633571267
101,카카오다다,4.6,마포구, 서울특별시 마포구 희우정로10길 15,카페/디저트, 만원 미만,2022-07-16,맛있다,57.0,50.0,7.0,0.0,4.035087719298245,37.5531365,126.9052599,홍대입구,1.6689291013741816
102,파이리퍼블릭,4.6,마포구, 서울특별시 마포구 양화로23길 10-10 B1,다국적음식, 만원-2만원,2022-04-26,맛있다,43.0,38.0,4.0,1.0,3.851162790697674,37.5597576,126.9256008,홍대입구,0.3784336990411322
103,우주옥,4.6,마포구, 서울특별시 마포구 동교로50길 11 B02호,한식, 만원-2만원,2022-08-06,맛있다,31.0,26.0,4.0,1.0,3.561290322580645,37.5633615,126.9270196,홍대입구,0.7953106715230643
104,오츠에스프레소,4.6,마포구, 서울특별시 마포구 독막로14길 32,카페/디저트, 만원 미만,2022-07-26,괜찮다,43.0,40.0,3.0,0.0,4.27906976744186,37.5472825,126.9223857,서강대,0.8904487113820955
105,제스티살룬,4.6,마포구, 서울특별시 마포구 연희로 31 연남빌딩 B1,양식, 만원 미만,2022-07-29,맛있다,45.0,39.0,6.0,0.0,3.9866666666666655,37.5592136,126.9265888,홍대입구,0.3792010544600615
106,윤서울,4.6,마포구, 서울특별시 마포구 홍익로2길 31 1F,한식, 4만원 이상,2022-05-08,맛있다,10.0,10.0,0.0,0.0,4.6,37.554064,126.9229818,홍대입구,0.30201570196274774
107,젤라떼리아 에따,4.6,마포구, 서울특별시 마포구 월드컵북로4길 44 1F,카페/디저트, 만원 미만,2022-07-27,맛있다,28.0,27.0,1.0,0.0,4.435714285714285,37.5575485,126.9211368,홍대입구,0.23887751115332712
108,르규옹,4.6,마포구, 서울특별시 마포구 성미산로17길 109 1F,양식, 2만원-3만원,2022-07-18,맛있다,7.0,7.0,0.0,0.0,4.6,37.564254,126.9174972,가좌,0.5522514413659493
109,산울림1992,4.5,마포구, 서울특별시 마포구 서강로9길 60,주점, 만원-2만원,2022-06-24,맛있다,191.0,163.0,21.0,7.0,3.5104712041884816,37.55427,126.93087,아현,0.2846810344119221
110,듁스커피,4.5,마포구, 서울특별시 마포구 어울마당로2길 10,카페/디저트, 만원 미만,2022-07-30,맛있다,156.0,140.0,13.0,3.0,3.865384615384616,37.5461965,126.9199969,서강대,1.1264351812270574
111,비파티세리,4.5,마포구, 서울특별시 마포구 마포대로14길 4 1F,카페/디저트, 만원 미만,2022-07-23,맛있다,47.0,41.0,6.0,0.0,3.925531914893617,37.5486084,126.955634,공덕,0.3613153691349941
112,우동 이요이요,4.5,마포구, 서울특별시 마포구 토정로35길 29,일식, 만원 미만,2022-07-13,맛있다,27.0,23.0,3.0,1.0,3.5,37.540389,126.9441188,마포,0.614221376530431
113,기노,4.5,마포구, 서울특별시 마포구 삼개로3길 6-1,주점, 2만원-3만원,2022-08-02,맛있다,33.0,28.0,4.0,1.0,3.545454545454546,37.5387226,126.9480406,마포,0.22231471951016854
114,하나라멘,4.5,마포구, 서울특별시 마포구 동교로38길 27-4 1F,일식, 만원 미만,2022-08-04,맛있다,28.0,23.0,5.0,0.0,3.696428571428572,37.561733,126.9254562,홍대입구,0.5789254592985061
115,무겐스위치,4.5,마포구, 서울특별시 마포구 동교로 242-13,일식, 만원 미만,2022-08-01,맛있다,14.0,13.0,1.0,0.0,4.178571428571429,37.5580021,126.9230374,홍대입구,0.1512383862877554
116,전주상회,4.5,마포구, 서울특별시 마포구 성미산로 195,주점, 2만원-3만원,2022-08-08,맛있다,11.0,11.0,0.0,0.0,4.5,37.5617068,126.9186731,홍대입구,0.7058157282034564
117,피에트라,4.4,마포구, 서울특별시 마포구 성미산로23길 62 1F,카페/디저트, 만원 미만,2 일 전,맛있다,22.0,20.0,1.0,1.0,3.6,37.5642613,126.9212428,가좌,0.7422512728937746
118,아소토,4.4,마포구, 서울특별시 마포구 독막로2길 34,주점, 2만원-3만원,2022-06-30,맛있다,19.0,17.0,2.0,0.0,3.936842105263159,37.5481171,126.9146569,홍대입구,1.2427475434124933
119,커피하우스마이샤,4.4,마포구, 서울특별시 마포구 포은로 52 1F,카페/디저트, 만원 미만,3 일 전,맛있다,10.0,9.0,1.0,0.0,3.96,37.5562777,126.9047718,홍대입구,1.6641603633571267
120,수더분,4.4,마포구, 서울특별시 마포구 백범로 152 공덕파크자이 202동 7호,카페/디저트, 만원 미만,2022-02-12,맛있다,6.0,6.0,0.0,0.0,4.4,37.5454456,126.947536,공덕,0.4383000028576405
121,정성,4.4,마포구, 서울특별시 마포구 방울내로 73,일식, 만원-2만원,2022-04-14,맛있다,7.0,7.0,0.0,0.0,4.4,37.5587511,126.9000511,가좌,1.7400704625005718
122,비스트로오라,4.4,마포구, 서울특별시 마포구 동교로 244 2F,양식, 2만원-3만원,2022-08-08,맛있다,4.0,4.0,0.0,0.0,4.4,37.5580021,126.9230374,홍대입구,0.1512383862877554
123,나성타코,4.4,마포구, 서울특별시 마포구 잔다리로2길 24 2F,다국적음식, 만원-2만원,2022-07-31,맛있다,7.0,6.0,1.0,0.0,3.771428571428572,37.5516249,126.9206281,홍대입구,0.6266757929918557
124,리밀커피&밀리,4.4,마포구, 서울특별시 마포구 동교로22길 21,카페/디저트, 만원 미만,2022-04-22,맛있다,7.0,7.0,0.0,0.0,4.4,37.5543439,126.9180959,홍대입구,0.5562011023938037
125,지알로파스타바,4.4,마포구, 서울특별시 마포구 독막로31길 18 1F,양식, 4만원 이상,2022-06-01,괜찮다,5.0,4.0,1.0,0.0,3.5200000000000005,37.5477785,126.9393065,서강대,0.6518414198435446
126,홍콩대패당,4.4,마포구, 서울특별시 마포구 양화로23길 10-8 2F,중식, 만원-2만원,2022-08-07,맛있다,5.0,5.0,0.0,0.0,4.4,37.5597576,126.9256008,홍대입구,0.3784336990411322
127,문데이,4.4,마포구, 서울특별시 마포구 토정로 27-1 1F,양식, 만원-2만원,2022-07-17,맛있다,6.0,6.0,0.0,0.0,4.4,37.5453311,126.9195762,서강대,1.1938591054438557
128,쿠시파파,4.4,마포구, 서울특별시 마포구 동교로 256-4 B1,주점, 2만원-3만원,2022-07-27,맛있다,5.0,5.0,0.0,0.0,4.4,37.5580021,126.9230374,홍대입구,0.1512383862877554
129,망원떡갈비,4.4,마포구, 서울특별시 마포구 포은로8길 25,한식, 만원 미만,5 일 전,맛있다,5.0,5.0,0.0,0.0,4.4,37.55655,126.9060537,홍대입구,1.5505283840363322
130,우마담,4.3,마포구, 서울특별시 마포구 독막로3길 30 2F,한식, 4만원 이상,2022-07-28,맛있다,30.0,25.0,5.0,0.0,3.583333333333333,37.549409,126.917028,홍대입구,1.0012428020498594
131,평안도상원냉면,4.3,마포구, 서울특별시 마포구 양화로 156 B1,한식, 만원 미만,2022-07-23,맛있다,30.0,26.0,4.0,0.0,3.7266666666666666,37.548834,126.9119913,홍대입구,1.3511332668210474
132,램랜드,4.3,마포구, 서울특별시 마포구 토정로 255,한식, 2만원-3만원,2021-11-11,맛있다,34.0,28.0,6.0,0.0,3.541176470588235,37.5453311,126.9195762,서강대,1.1938591054438557
133,파스텔커피웍스,4.3,마포구, 서울특별시 마포구 독막로2길 38,카페/디저트, 만원 미만,2022-08-10,맛있다,15.0,13.0,2.0,0.0,3.7266666666666666,37.5481171,126.9146569,홍대입구,1.2427475434124933
134,리플레토레,4.3,마포구, 서울특별시 마포구 월드컵로11길 27 1F,양식, 만원-2만원,2022-07-28,맛있다,12.0,10.0,2.0,0.0,3.583333333333333,37.5542471,126.9086154,홍대입구,1.3530550246273925
135,아키야라멘,4.3,마포구, 서울특별시 마포구 토정로 39-3,일식, 만원 미만,2022-06-28,괜찮다,20.0,18.0,2.0,0.0,3.87,37.5453311,126.9195762,서강대,1.1938591054438557
136,코코부코,4.3,마포구, 서울특별시 마포구 희우정로 72,카페/디저트, 만원-2만원,2022-03-17,맛있다,39.0,34.0,5.0,0.0,3.748717948717948,37.5539725,126.9020972,선유도,1.8508037361319067
137,브레드럼,4.3,마포구, 서울특별시 마포구 연희로1길 19,카페/디저트, 만원 미만,2022-04-09,맛있다,19.0,17.0,2.0,0.0,3.8473684210526313,37.5597576,126.9256008,홍대입구,0.3784336990411322
138,옥정,4.3,마포구, 서울특별시 마포구 신수로 106,한식, 만원 미만,2022-02-13,맛있다,20.0,19.0,1.0,0.0,4.085,37.54697,126.9343,서강대,0.31956334005339776
139,라오,4.3,마포구, 서울특별시 마포구 동교로 125 1F,다국적음식, 만원-2만원,2022-06-19,맛있다,17.0,14.0,3.0,0.0,3.541176470588235,37.5580021,126.9230374,홍대입구,0.1512383862877554
140,고미태,4.3,마포구, 서울특별시 마포구 월드컵로 41 1F,한식, 만원 미만,2022-08-06,맛있다,18.0,15.0,3.0,0.0,3.583333333333333,37.5596169,126.9069064,가좌,1.2569261370415228
141,포포브레드,4.3,마포구, 서울특별시 마포구 동교로18길 13,카페/디저트, 만원 미만,2022-07-27,맛있다,14.0,13.0,1.0,0.0,3.992857142857143,37.5538168,126.9177948,홍대입구,0.6087240034411413
142,후엘고,4.3,마포구, 서울특별시 마포구 마포대로11길 118,카페/디저트, 만원 미만,2022-02-01,맛있다,22.0,21.0,1.0,0.0,4.104545454545455,37.54915,126.9510416,공덕,0.27242952264153175
143,잔상,4.3,마포구, 서울특별시 마포구 동교로38길 33-10,주점, 2만원-3만원,2022-02-13,맛있다,7.0,7.0,0.0,0.0,4.3,37.561733,126.9254562,홍대입구,0.5789254592985061
144,홍어한마리,4.3,마포구, 서울특별시 마포구 동교로 94,기타, 2만원-3만원,2022-02-19,맛있다,10.0,10.0,0.0,0.0,4.3,37.5580021,126.9230374,홍대입구,0.1512383862877554
145,1989버거스탠드,4.3,마포구, 서울특별시 마포구 연희로1길 36,양식, 만원 미만,2022-06-21,맛있다,6.0,6.0,0.0,0.0,4.3,37.5597576,126.9256008,홍대입구,0.3784336990411322
146,진진가연,4.3,마포구, 서울특별시 마포구 월드컵북로1길 60,중식, 2만원-3만원,2021-11-17,맛있다,15.0,13.0,2.0,0.0,3.7266666666666666,37.5538493,126.9187503,홍대입구,0.5371064154417438
147,커츠,4.3,마포구, 서울특별시 마포구 독막로28길 58 좌측,일식, 만원-2만원,2022-06-25,맛있다,5.0,5.0,0.0,0.0,4.3,37.5455682,126.9369967,서강대,0.5941279232578716
148,옥자,4.3,마포구, 서울특별시 마포구 성미산로29길 40-15,다국적음식, 만원-2만원,2022-07-31,괜찮다,8.0,7.0,1.0,0.0,3.7625,37.5645946,126.9226626,가좌,0.8154677147228216
149,고도식,4.3,마포구, 서울특별시 마포구 마포대로1길 16,한식, 만원-2만원,2022-04-29,맛있다,5.0,5.0,0.0,0.0,4.3,37.5390898,126.9438503,마포,0.5795946086740299
150,쿠루미,4.3,마포구, 서울특별시 마포구 연희로1길 46,주점, 2만원-3만원,2022-02-19,맛있다,12.0,11.0,1.0,0.0,3.9416666666666655,37.5597576,126.9256008,홍대입구,0.3784336990411322
151,영광보쌈,4.3,마포구, 서울특별시 마포구 만리재로1길 14,한식, 2만원-3만원,2022-06-27,맛있다,12.0,10.0,2.0,0.0,3.583333333333333,37.5449716,126.9534789,공덕,0.2404740533738369
152,웨스트빌피자,4.3,마포구, 서울특별시 마포구 포은로 37-1,양식, 만원-2만원,4 일 전,맛있다,13.0,12.0,1.0,0.0,3.969230769230769,37.5562777,126.9047718,홍대입구,1.6641603633571267
153,돈카츠준,4.3,마포구, 서울특별시 마포구 백범로 205 펜트라우스 101동 B226호,일식, 만원-2만원,2022-05-06,맛있다,8.0,8.0,0.0,0.0,4.3,37.5454456,126.947536,공덕,0.4383000028576405
154,하롱반미,4.3,마포구, 서울특별시 마포구 토정로3길 9,다국적음식, 만원 미만,2022-08-04,맛있다,7.0,7.0,0.0,0.0,4.3,37.5461223,126.9141797,홍대입구,1.4446023575621807
155,상수냉장고,4.3,마포구, 서울특별시 마포구 와우산로 23 규민빌딩 1F,한식, 만원-2만원,2022-06-27,맛있다,12.0,11.0,1.0,0.0,3.9416666666666655,37.555087,126.9303086,아현,0.3056377552583828
156,상암회관,4.3,마포구, 서울특별시 마포구 월드컵북로54길 17,한식, 만원 미만,2022-08-07,맛있다,7.0,7.0,0.0,0.0,4.3,37.5813028,126.889349,수색,0.5941586436138356
157,조이버거,4.3,마포구, 서울특별시 마포구 신촌로12길 32 1F,양식, 만원-2만원,1 일 전,맛있다,5.0,5.0,0.0,0.0,4.3,37.5556978,126.9326819,아현,0.09861668932688743
158,산청엔흑돼지,4.3,마포구, 서울특별시 마포구 포은로 110,한식, 만원-2만원,2022-05-28,맛있다,6.0,5.0,1.0,0.0,3.583333333333333,37.5562777,126.9047718,홍대입구,1.6641603633571267
159,빠네돌체,4.3,마포구, 서울특별시 마포구 마포대로4다길 31,양식, 만원-2만원,2022-03-25,맛있다,6.0,6.0,0.0,0.0,4.3,37.5355525,126.9440389,마포,0.5885419150297524
160,프로그,4.3,마포구, 서울특별시 마포구 포은로 61,주점, 2만원-3만원,2022-01-12,맛있다,5.0,5.0,0.0,0.0,4.3,37.5562777,126.9047718,홍대입구,1.6641603633571267
161,호시쿠즈,4.3,마포구, 서울특별시 마포구 독막로 311 재화스퀘어 B1 104호,주점, 2만원-3만원,2022-08-01,맛있다,5.0,5.0,0.0,0.0,4.3,37.5474975,126.9306545,서강대,0.23974537944570953
162,세잔,4.2,마포구, 서울특별시 마포구 포은로 75,카페/디저트, 만원 미만,2022-06-23,맛있다,18.0,16.0,2.0,0.0,3.733333333333333,37.5562777,126.9047718,홍대입구,1.6641603633571267
163,과자산책,4.2,마포구, 서울특별시 마포구 포은로 78 2F,카페/디저트, 만원 미만,2022-01-10,맛있다,20.0,17.0,3.0,0.0,3.5700000000000003,37.5562777,126.9047718,홍대입구,1.6641603633571267
164,이코이,4.4,도봉구, 서울특별시 도봉구 도봉로112길 20,일식, 만원-2만원,2022-05-29,맛있다,37.0,32.0,4.0,1.0,3.5675675675675675,37.6470469,127.0383223,녹천,0.7580658784720409
165,패멩베이커리,4.3,도봉구, 서울특별시 도봉구 도봉로116길 4,카페/디저트, 만원 미만,2022-04-18,맛있다,7.0,7.0,0.0,0.0,4.3,37.6481454,127.0360859,미아사거리,0.8192060465899389
166,스마일닭강정,4.3,도봉구, 서울특별시 도봉구 도봉로110아길 7 1F,한식, 만원 미만,2022-03-19,맛있다,7.0,7.0,0.0,0.0,4.3,37.6441678,127.0371506,미아사거리,0.6472889053042065
167,코노하카레,4.2,도봉구, 서울특별시 도봉구 우이천로20길 7 103동상가 1F,일식, 만원-2만원,2022-02-07,맛있다,38.0,32.0,6.0,0.0,3.5368421052631582,37.6409998,127.0342965,미아사거리,0.4048702562144397
168,버거브라더,4.2,도봉구, 서울특별시 도봉구 마들로 657 1F,양식, 만원 미만,2022-06-30,맛있다,8.0,7.0,1.0,0.0,3.675,37.6577639,127.0521469,창동,0.620659520923145
169,홍방원,4.1,도봉구, 서울특별시 도봉구 도봉로169나길 47,중식, 만원 미만,2022-07-07,맛있다,8.0,7.0,1.0,0.0,3.5874999999999995,37.6688245,127.0394255,쌍문,0.20654435911144275
170,쌍문동커피,4.0,도봉구, 서울특별시 도봉구 도봉로116길 5,카페/디저트, 만원 미만,2021-11-19,맛있다,17.0,16.0,1.0,0.0,3.764705882352941,37.6481454,127.0360859,미아사거리,0.8192060465899389
171,묵은지사랑,4.4,도봉구, 서울특별시 도봉구 도봉로164길 38,한식, 만원-2만원,2020-07-03,맛있다,8.0,8.0,0.0,0.0,4.4,37.6757422,127.046151,도봉,0.5105976364765172
172,곳간,4.6,도봉구, 서울특별시 도봉구 도봉로154길 35 1F,일식, 만원 미만,2021-03-02,맛있다,3.0,3.0,0.0,0.0,4.6,37.6712255,127.0452254,쌍문,0.403445303328546
173,마이요거트서울,4.7,도봉구, 서울특별시 도봉구 도봉로114길 60-5,카페/디저트, 만원 미만,2021-07-13,맛있다,1.0,1.0,0.0,0.0,4.7,37.6476665,127.0383173,녹천,0.7994488821643785
174,스시하쿠야,4.3,노원구, 서울특별시 노원구 노원로 470 2F,일식, 4만원 이상,2022-08-05,맛있다,8.0,8.0,0.0,0.0,4.3,37.6583996,127.0654025,마들,0.3346690392207193
175,노원목고기집,4.3,노원구, 서울특별시 노원구 상계로 96,한식, 만원-2만원,2022-01-24,맛있다,32.0,31.0,1.0,0.0,4.165625,37.66158,127.07406,상계,0.07153790851515301
176,경성초밥,4.3,노원구, 서울특별시 노원구 공릉로 119-5,일식, 만원-2만원,2022-07-08,맛있다,19.0,17.0,2.0,0.0,3.8473684210526313,37.64522,127.06673,하계,0.9916240712023814
177,당혹,4.3,노원구, 서울특별시 노원구 동일로217가길 17 104호,카페/디저트, 만원 미만,2022-04-14,맛있다,11.0,10.0,1.0,0.0,3.909090909090909,37.6534275,127.0591452,수락산,0.2420654056095696
178,땅코참숯구이,4.2,노원구, 서울특별시 노원구 노해로85길 15-5,한식, 만원-2만원,2022-07-17,맛있다,17.0,15.0,2.0,0.0,3.7058823529411766,37.6559172,127.0651444,마들,0.23316565499807063
179,이너모스트,3.9,노원구, 서울특별시 노원구 동일로183길 12-14,카페/디저트, 만원 미만,2022-01-03,맛있다,18.0,17.0,1.0,0.0,3.683333333333333,37.6239609,127.0727706,공릉,0.23743075069545852
180,우리콩순두부,4.3,강북구, 서울특별시 강북구 삼양로173길 46,한식,0,2022-06-18,맛있다,4.0,4.0,0.0,0.0,4.3,37.6623466,127.009961,수유,2.2855598106093526
181,엘림들깨수제비칼국수,4.2,강북구, 서울특별시 강북구 삼각산로 67,한식, 만원 미만,2022-06-11,맛있다,64.0,57.0,6.0,1.0,3.609375,37.6408474,127.017533,수유,0.19785881495595337
182,다정도병인양,4.2,강북구, 서울특별시 강북구 4.19로 41-1 2F,카페/디저트, 만원 미만,2022-06-29,맛있다,7.0,7.0,0.0,0.0,4.2,37.6477979,127.012414,수유,0.6990804220634871
183,장수마늘보쌈,4.2,강북구, 서울특별시 강북구 덕릉로 192,한식, 만원-2만원,2022-06-11,맛있다,22.0,20.0,2.0,0.0,3.8181818181818175,37.6346823,127.0235333,미아,0.16451221029157784
184,토방청국장,4.5,강북구, 서울특별시 강북구 삼각산로 63,한식, 만원 미만,2021-11-28,맛있다,5.0,4.0,1.0,0.0,3.6,37.6408474,127.017533,수유,0.19785881495595337
185,소야일식,4.3,은평구, 서울특별시 은평구 불광로14길 4 더클래스 1F,일식, 4만원 이상,2022-02-17,괜찮다,7.0,6.0,1.0,0.0,3.6857142857142855,37.6224152,126.9317062,불광,1.0349289952951568
186,넙딱집,4.3,은평구, 서울특별시 은평구 진흥로 124 1F,한식, 만원-2만원,2022-05-08,맛있다,7.0,7.0,0.0,0.0,4.3,37.6078565,126.924794,녹번,1.1698965743848109
187,필구커피,4.3,은평구, 서울특별시 은평구 불광천길 442-29 1F,카페/디저트, 만원 미만,2022-04-10,맛있다,8.0,8.0,0.0,0.0,4.3,37.5932231,126.9156462,무악재,1.588164519301222
188,중국음식점 / 中国小吃,4.3,은평구, 서울특별시 은평구 통일로80길 10 B1,중식, 만원-2만원,2022-04-25,맛있다,7.0,6.0,1.0,0.0,3.6857142857142855,37.6205229,126.9228971,불광,0.2571508229911636
189,참새식당 스즈메,4.2,은평구, 서울특별시 은평구 연서로29길 22-44 1F 102호,주점, 만원-2만원,2022-08-07,맛있다,14.0,14.0,0.0,0.0,4.2,37.6203064,126.917492,불광,0.33377997670748
190,YM에스프레소룸,4.2,은평구, 서울특별시 은평구 진관3로 43-9 래미안아파트상가 909동 101-102호,카페/디저트, 만원 미만,6 일 전,맛있다,12.0,10.0,2.0,0.0,3.5,37.6390892,126.9182425,구파발,0.45514093032172714
191,금원함흥냉면,4.2,은평구, 서울특별시 은평구 역말로 53 1F,한식, 만원 미만,2022-06-30,맛있다,7.0,7.0,0.0,0.0,4.2,37.60724,126.9194,불광,1.3013388087382647
192,티그레서울,4.2,은평구, 서울특별시 은평구 연서로29길 34 1F,카페/디저트, 만원 미만,2022-08-07,맛있다,4.0,4.0,0.0,0.0,4.2,37.6203064,126.917492,불광,0.33377997670748
193,flot,4.0,은평구, 서울특별시 은평구 서오릉로 20-1,카페/디저트, 만원 미만,2022-05-27,맛있다,9.0,8.0,1.0,0.0,3.555555555555556,37.6128672,126.9139794,불광,0.9014029377206194
194,포옹싸,4.0,은평구, 서울특별시 은평구 통일로 1022 신한헤스티아 2차 115호,다국적음식, 만원 미만,2022-08-06,맛있다,13.0,12.0,1.0,0.0,3.692307692307693,37.6251416,126.9200157,연신내,0.36866313291122466
195,만가타,4.8,종로구, 서울특별시 종로구 삼청로2길 40-5,다국적음식, 4만원 이상,2022-07-31,맛있다,50.0,41.0,7.0,2.0,3.552,37.5800252,126.9814702,안국,0.5303491465085922
196,호반,4.8,종로구, 서울특별시 종로구 삼일대로26길 20,한식, 2만원-3만원,2022-07-23,맛있다,72.0,67.0,3.0,2.0,4.199999999999999,0.0,0.0,개화,13158.583793832535
197,부촌육회,4.7,종로구, 서울특별시 종로구 종로 200-12,한식, 만원-2만원,3 일 전,맛있다,186.0,160.0,21.0,5.0,3.790322580645161,37.5703834,126.9901528,종로3가,0.0751468992554334
198,오레노라멘,4.7,종로구, 서울특별시 종로구 율곡로 49-4 1F,일식, 만원 미만,6 일 전,맛있다,91.0,78.0,10.0,3.0,3.718681318681319,37.5757453,126.9810922,안국,0.40969648879372306
199,BAR CHAM,4.7,종로구, 서울특별시 종로구 자하문로7길 34,주점, 2만원-3만원,2022-08-03,맛있다,36.0,35.0,1.0,0.0,4.569444444444445,37.5793043,126.9699922,경복궁,0.5299853667282032
200,일월카츠,4.7,종로구, 서울특별시 종로구 계동길 17 1F,일식, 만원-2만원,2022-07-25,맛있다,14.0,14.0,0.0,0.0,4.7,37.5782611,126.9867262,안국,0.21144499035009537
201,파네트크루아상팩토리,4.6,종로구, 서울특별시 종로구 사직로8길 24 경희궁의아침 1F,카페/디저트, 만원 미만,2022-07-02,맛있다,119.0,106.0,12.0,1.0,4.020168067226891,37.5742747,126.9767766,광화문,0.02677614660332245
202,폴앤폴리나,4.6,종로구, 서울특별시 종로구 사직로8길 42 1F,카페/디저트, 만원 미만,1 일 전,맛있다,162.0,149.0,12.0,1.0,4.174074074074074,37.5742747,126.9767766,광화문,0.02677614660332245
203,물랑,4.6,종로구, 서울특별시 종로구 자하문로16길 8 1F,다국적음식, 4만원 이상,2022-05-26,맛있다,31.0,26.0,5.0,0.0,3.858064516129032,37.581536,126.971517,경복궁,0.7081578686838845
204,갈로팡,4.6,종로구, 서울특별시 종로구 북촌로4길 16 2F,다국적음식, 4만원 이상,2022-02-26,맛있다,11.0,10.0,1.0,0.0,4.181818181818182,37.5792893,126.9861472,안국,0.30559237231580266
205,수도원,4.6,종로구, 서울특별시 종로구 동숭3길 16 B1,주점, 만원-2만원,2022-08-05,맛있다,57.0,46.0,11.0,0.0,3.712280701754386,37.5817288,127.0046884,혜화,0.21570484393688868
206,우육면관,4.6,종로구, 서울특별시 종로구 종로7길 29-14,중식, 만원 미만,2022-07-25,맛있다,28.0,23.0,5.0,0.0,3.778571428571429,37.5709151,126.9818387,종각,0.13863766312668188
207,혜화도담,4.6,종로구, 서울특별시 종로구 대명1길 16-6,한식, 만원 미만,6 일 전,맛있다,30.0,27.0,2.0,1.0,3.833333333333333,37.5829055,127.000727,혜화,0.1787387730803354
208,부빙,4.5,종로구, 서울특별시 종로구 창의문로 136,카페/디저트, 만원 미만,2022-07-20,맛있다,84.0,72.0,9.0,3.0,3.5357142857142856,37.5902928,126.9706226,경복궁,1.6808071939205262
209,김진목삼,4.5,종로구, 서울특별시 종로구 자하문로1길 51,한식, 만원-2만원,2022-08-07,맛있다,102.0,88.0,10.0,4.0,3.5294117647058822,37.5762747,126.9704061,경복궁,0.2764990334844097
210,논데,4.5,종로구, 서울특별시 종로구 종로18길 37 하이뷰디아트 2F,일식, 3만원-4만원,2022-07-26,맛있다,15.0,14.0,1.0,0.0,4.2,37.5692486,126.991331,종로3가,0.1280531192780258
211,아키비스트,4.5,종로구, 서울특별시 종로구 효자로13길 52 1F,카페/디저트, 만원 미만,2022-08-02,맛있다,47.0,40.0,7.0,0.0,3.8297872340425534,37.5827277,126.9724626,경복궁,0.8262345624729728
212,모던샤브하우스,4.5,종로구, 서울특별시 종로구 종로3길 17 D타워 리플레이스 광화문 5F,한식, 4만원 이상,2022-08-02,맛있다,23.0,22.0,1.0,0.0,4.304347826086956,37.57119,126.9802178,종각,0.2781538205454583
213,독도16도,4.4,종로구, 서울특별시 종로구 자하문로33길 10 1F,주점, 만원-2만원,2022-08-09,괜찮다,15.0,14.0,1.0,0.0,4.106666666666667,37.586599,126.9687841,경복궁,1.315192114757992
214,도취,4.4,종로구, 서울특별시 종로구 옥인길 23-6 누상빌라 B1,한식, 2만원-3만원,2022-06-28,맛있다,51.0,45.0,5.0,1.0,3.709803921568628,37.5806981,126.9677905,경복궁,0.7700484321230953
215,차차 티클럽,4.4,종로구, 서울특별시 종로구 종로46가길 13,카페/디저트, 만원 미만,2022-05-30,맛있다,19.0,17.0,2.0,0.0,3.936842105263159,37.5708165,127.0116602,동묘앞,0.5180408061244053
216,누룩나무,4.4,종로구, 서울특별시 종로구 인사동16길 13,주점, 만원-2만원,2022-07-25,맛있다,27.0,24.0,3.0,0.0,3.911111111111112,37.5755134,126.9841687,안국,0.1740301443925863
217,학술적연구소,4.4,종로구, 서울특별시 종로구 보문로1길 7-4 1F,주점, 만원-2만원,2022-02-27,맛있다,30.0,28.0,2.0,0.0,4.106666666666667,37.5759868,127.0221399,동묘앞,0.5698564321216021
218,부촌육회,4.4,종로구, 서울특별시 종로구 종로 200-4 1F,한식, 만원-2만원,2022-06-30,맛있다,30.0,26.0,4.0,0.0,3.8133333333333335,37.5703834,126.9901528,종로3가,0.0751468992554334
219,덕후선생,4.4,종로구, 서울특별시 종로구 종로3길 17 D타워 리플레이스광화문 4F,중식, 만원-2만원,4 일 전,맛있다,18.0,15.0,3.0,0.0,3.6666666666666665,37.57119,126.9802178,종각,0.2781538205454583
220,비텔로소띠,4.4,종로구, 서울특별시 종로구 자하문로 38,양식, 만원 미만,2022-04-21,맛있다,14.0,13.0,1.0,0.0,4.085714285714286,37.5982911,126.9617423,홍제,1.8776699292726602
221,커피원,4.4,종로구, 서울특별시 종로구 새문안로3길 12 신문로빌딩,카페/디저트, 만원 미만,2022-07-20,맛있다,10.0,9.0,1.0,0.0,3.96,37.5731009,126.9726539,경복궁,0.2541783453783344
222,밀림,4.4,종로구, 서울특별시 종로구 창신6나길 17-6,다국적음식, 만원-2만원,2022-07-28,맛있다,5.0,5.0,0.0,0.0,4.4,37.5760894,127.0118656,동묘앞,0.5246060549133295
223,안주마을,4.3,종로구, 서울특별시 종로구 자하문로1길 5,주점, 만원-2만원,2022-06-28,맛있다,51.0,44.0,6.0,1.0,3.541176470588235,37.5762747,126.9704061,경복궁,0.2764990334844097
224,오무사,4.3,종로구, 서울특별시 종로구 필운대로9길 1,주점, 만원-2만원,2021-10-07,맛있다,22.0,19.0,3.0,0.0,3.713636363636364,37.5822657,126.965875,경복궁,1.0120084388187076
225,뽐,4.3,종로구, 서울특별시 종로구 자하문로9길 15 서촌애벌레 건물 1F,주점, 만원-2만원,2022-08-07,맛있다,21.0,18.0,3.0,0.0,3.6857142857142855,37.5794335,126.9700717,경복궁,0.5382867767891936
226,33마켓,4.3,종로구, 서울특별시 종로구 효자로 33 보안여관 신관 1F,카페/디저트, 만원 미만,2022-06-03,맛있다,24.0,22.0,2.0,0.0,3.9416666666666655,37.5836144,126.9733994,경복궁,0.9215096049321742
227,라뜰리에 꼼때,4.3,종로구, 서울특별시 종로구 성균관로17길 53,다국적음식, 4만원 이상,2021-12-31,괜찮다,6.0,5.0,1.0,0.0,3.583333333333333,37.5912199,126.997458,혜화,1.1251594125555495
228,포항,4.3,종로구, 서울특별시 종로구 종로 309-3,다국적음식, 만원 미만,6 일 전,맛있다,10.0,9.0,1.0,0.0,3.87,37.5703834,126.9901528,종로3가,0.0751468992554334
229,델리노쉬,4.3,종로구, 서울특별시 종로구 자하문로 35-6 1F,양식, 만원 미만,2022-07-24,맛있다,11.0,10.0,1.0,0.0,3.909090909090909,37.5982911,126.9617423,홍제,1.8776699292726602
230,고트델리,4.3,종로구, 서울특별시 종로구 필운대로5가길 13 1F,양식, 만원 미만,2022-07-24,맛있다,17.0,16.0,1.0,0.0,4.047058823529412,37.5805617,126.966932,경복궁,0.8089323264701556
231,톤티커피,4.3,종로구, 서울특별시 종로구 북촌로 6-8,카페/디저트, 만원 미만,2022-06-27,맛있다,15.0,14.0,1.0,0.0,4.013333333333333,37.5832957,126.9850879,안국,0.7490469047207242
232,김진목삼,4.3,종로구, 서울특별시 종로구 자하문로1가길 9,한식, 만원-2만원,2022-05-16,맛있다,20.0,17.0,3.0,0.0,3.655,37.5771704,126.971942,경복궁,0.23762949625783528
233,동묘마케트,4.3,종로구, 서울특별시 종로구 종로54길 17-10 1F,주점, 2만원-3만원,4 일 전,맛있다,8.0,7.0,1.0,0.0,3.7625,37.5710602,127.0140897,동묘앞,0.3344079775582002
234,금옥당,4.3,종로구, 서울특별시 종로구 인사동길 49,카페/디저트, 만원 미만,2022-06-29,맛있다,11.0,11.0,0.0,0.0,4.3,37.5735458,126.985487,안국,0.3367878431018013
235,병천유황오리,4.3,종로구, 서울특별시 종로구 삼봉로 68 신영빌딩,한식, 만원-2만원,2022-07-10,맛있다,22.0,18.0,4.0,0.0,3.5181818181818176,37.57228,126.98095,종각,0.30161373054046686
236,버터풀앤크리멀러스 쁘띠,4.3,종로구, 서울특별시 종로구 종로3길 17 D타워 103호,카페/디저트, 만원 미만,2022-05-06,맛있다,10.0,9.0,1.0,0.0,3.87,37.57119,126.9802178,종각,0.2781538205454583
237,발효카페 큔,4.3,종로구, 서울특별시 종로구 자하문로26길 17-2,카페/디저트, 만원 미만,2022-08-01,맛있다,9.0,8.0,1.0,0.0,3.822222222222222,37.5845891,126.9718871,경복궁,1.0374288294406835
238,남대문막내횟집,4.3,종로구, 서울특별시 종로구 우정국로 4-1,기타, 만원-2만원,2022-04-11,맛있다,8.0,8.0,0.0,0.0,4.3,37.573722,126.9829117,종각,0.3954208204971024
239,홍어랑민어랑,4.3,종로구, 서울특별시 종로구 삼일대로28길 7,기타, 만원-2만원,2022-06-22,맛있다,4.0,4.0,0.0,0.0,4.3,37.5741513,126.989053,안국,0.404844034492305
240,대하식당,4.3,종로구, 서울특별시 종로구 자하문로7길 27,한식, 만원-2만원,2022-02-09,맛있다,8.0,8.0,0.0,0.0,4.3,37.5793043,126.9699922,경복궁,0.5299853667282032
241,호남집,4.3,종로구, 서울특별시 종로구 종로40가길 5,한식, 만원 미만,2022-04-01,맛있다,6.0,6.0,0.0,0.0,4.3,37.5702525,127.0060622,종로5가,0.37180438999611126
242,전라도횟집,4.3,종로구, 서울특별시 종로구 창경궁로 88,기타, 2만원-3만원,2022-06-14,맛있다,7.0,6.0,1.0,0.0,3.6857142857142855,37.5710673,126.997742,종로5가,0.37025776322675347
243,옐로베리,4.3,종로구, 서울특별시 종로구 우정국로2길 40,한식, 만원 미만,2022-06-02,맛있다,4.0,4.0,0.0,0.0,4.3,37.5695162,126.9844513,종각,0.13954892816104367
244,오설록,4.2,종로구, 서울특별시 종로구 북촌로 45,카페/디저트, 만원 미만,3 일 전,괜찮다,18.0,16.0,2.0,0.0,3.733333333333333,37.5832957,126.9850879,안국,0.7490469047207242
245,퀴진라끌레,4.2,종로구, 서울특별시 종로구 자하문로7길 36,다국적음식, 2만원-3만원,2022-06-08,맛있다,19.0,16.0,3.0,0.0,3.5368421052631582,37.5793043,126.9699922,경복궁,0.5299853667282032
246,세루리안,4.2,종로구, 서울특별시 종로구 인사동12길 17,카페/디저트, 만원 미만,2022-05-23,맛있다,23.0,20.0,3.0,0.0,3.652173913043478,37.5744117,126.9847415,안국,0.2525216841127007
247,커피브론즈,4.2,종로구, 서울특별시 종로구 율곡로5길 20,카페/디저트, 만원 미만,2022-04-23,맛있다,12.0,10.0,2.0,0.0,3.5,37.5769935,126.9848084,안국,0.08564611953779763
248,세이지핀치,4.2,종로구, 서울특별시 종로구 필운대로1길 8 1F,카페/디저트, 만원 미만,2022-06-18,맛있다,10.0,9.0,1.0,0.0,3.78,37.5777542,126.9681088,경복궁,0.5316698469497966
249,고메식당,4.2,종로구, 서울특별시 종로구 종로10길 14,한식, 만원-2만원,2022-07-10,맛있다,6.0,5.0,1.0,0.0,3.5,37.5697892,126.9844498,종각,0.12632042421709294
250,북촌도담,4.2,종로구, 서울특별시 종로구 북촌로1길 9,한식, 만원 미만,2022-07-15,맛있다,10.0,9.0,1.0,0.0,3.78,37.5774355,126.9850711,안국,0.10753930480724379
251,안덕,4.2,종로구, 서울특별시 종로구 자하문로17길 18 1F,한식, 만원-2만원,2022-06-18,맛있다,6.0,5.0,1.0,0.0,3.5,37.5813626,126.9697781,경복궁,0.7396379374221028
252,튀튀쿠키,4.2,종로구, 서울특별시 종로구 자하문로7길 69-1,카페/디저트, 만원 미만,2022-07-21,맛있다,5.0,5.0,0.0,0.0,4.2,37.5793043,126.9699922,경복궁,0.5299853667282032
253,장수한방삼계탕,4.2,종로구, 서울특별시 종로구 새문안로5길 13 B1,한식, 만원-2만원,2022-02-28,맛있다,11.0,10.0,1.0,0.0,3.8181818181818175,37.5708657,126.9748748,광화문,0.3900669895258088
254,명란식당,4.2,종로구, 서울특별시 종로구 창의문로 140-1,일식, 만원 미만,2022-06-16,맛있다,10.0,9.0,1.0,0.0,3.78,37.5902928,126.9706226,경복궁,1.6808071939205262
255,노말사이클코페,4.2,종로구, 서울특별시 종로구 필운대로7길 6-8 3F,카페/디저트, 만원 미만,2022-07-28,맛있다,6.0,6.0,0.0,0.0,4.2,37.5814308,126.967448,경복궁,0.8527467302830561
256,네스트,4.2,종로구, 서울특별시 종로구 필운대로5길 11 1F,카페/디저트, 만원 미만,2022-07-27,맛있다,5.0,5.0,0.0,0.0,4.2,37.5794139,126.968555,경복궁,0.6179388925647495
257,통큰누이네 육회빈대떡,4.2,종로구, 서울특별시 종로구 동호로 403-24,한식, 만원-2만원,2022-04-13,맛있다,6.0,6.0,0.0,0.0,4.2,37.5703796,127.0019568,종로5가,0.010223321835142907
258,오이지,4.2,종로구, 서울특별시 종로구 대학로9길 33,한식, 만원-2만원,2022-07-05,맛있다,6.0,5.0,1.0,0.0,3.5,37.5817378,127.0009214,혜화,0.1171326461238514
259,드엠,4.1,종로구, 서울특별시 종로구 동순라길 126-3 5F,카페/디저트, 만원 미만,2022-05-25,맛있다,17.0,15.0,2.0,0.0,3.617647058823529,37.5727484,126.9967847,종로5가,0.5194599230798191
260,궤도,4.1,종로구, 서울특별시 종로구 필운대로 9-2 3F,카페/디저트, 만원 미만,2022-03-03,맛있다,14.0,12.0,2.0,0.0,3.514285714285714,37.576108,126.9694039,경복궁,0.3547528630250968
261,회현식당,4.8,중구, 서울특별시 중구 퇴계로2길 9-8,주점, 2만원-3만원,2022-08-08,괜찮다,41.0,36.0,5.0,0.0,4.214634146341463,37.5569554,126.9772173,숙대입구,0.6989927725407648
262,오제제,4.8,중구, 서울특별시 중구 세종대로 136 B3,일식, 만원-2만원,1 일 전,맛있다,39.0,35.0,4.0,0.0,4.307692307692308,37.5625599,126.9762094,시청,0.3542701622365635
263,시키카츠,4.8,중구, 서울특별시 중구 다산로42나길 14 1F,일식, 만원-2만원,2022-06-17,맛있다,34.0,29.0,5.0,0.0,4.094117647058823,37.5646427,127.0189118,청구,0.6263120615849078
264,패스트리부티크,4.7,중구, 서울특별시 중구 동호로 249 서울신라호텔 1F,카페/디저트, 4만원 이상,2022-07-15,맛있다,97.0,83.0,14.0,0.0,4.021649484536082,37.5579658,127.0082044,약수,0.46954109347431194
265,회현카페,4.7,중구, 서울특별시 중구 퇴계로2길 9-8 2F,일식, 2만원-3만원,2022-05-26,괜찮다,21.0,18.0,3.0,0.0,4.028571428571429,37.5569554,126.9772173,숙대입구,0.6989927725407648
266,더파크뷰,4.6,중구, 서울특별시 중구 동호로 249 서울신라호텔 1F,기타, 4만원 이상,2022-07-19,맛있다,161.0,127.0,32.0,2.0,3.514285714285714,37.5579658,127.0082044,약수,0.46954109347431194
267,주옥,4.6,중구, 서울특별시 중구 소공로 119 더 플라자 3F,한식, 4만원 이상,2022-08-11,맛있다,45.0,39.0,6.0,0.0,3.9866666666666655,37.5602684,126.9820068,을지로입구,0.6472708573841993
268,시미베,4.6,중구, 서울특별시 중구 퇴계로 386-1,주점, 만원-2만원,2022-08-04,맛있다,17.0,14.0,3.0,0.0,3.7882352941176474,37.5596957,126.9809292,을지로입구,0.7248338272408372
269,유가,4.6,중구, 서울특별시 중구 퇴계로12길 68,중식, 만원-2만원,2022-05-19,맛있다,17.0,16.0,1.0,0.0,4.329411764705882,37.5587303,126.9813433,을지로입구,0.8240363696899802
270,황소막창구이,4.6,중구, 서울특별시 중구 을지로3길 49,한식, 만원-2만원,2022-07-12,맛있다,16.0,16.0,0.0,0.0,4.6,37.5660147,126.9814615,을지로입구,0.10745478223510223
271,도림,4.5,중구, 서울특별시 중구 남대문로 81 롯데호텔서울 본관 37F,중식, 4만원 이상,2021-07-12,맛있다,32.0,29.0,3.0,0.0,4.078125,37.5658994,126.9826051,을지로입구,0.019531953402608642
272,페스타바이민구,4.5,중구, 서울특별시 중구 장충단로 60,양식, 4만원 이상,2022-05-21,맛있다,14.0,12.0,2.0,0.0,3.857142857142857,37.5600976,127.005614,동대입구,0.47449057530980404
273,아리아께,4.4,중구, 서울특별시 중구 동호로 249 서울신라호텔 2F,일식, 4만원 이상,2022-05-18,괜찮다,49.0,44.0,5.0,0.0,3.9510204081632656,37.5579658,127.0082044,약수,0.46954109347431194
274,다만프레르,4.4,중구, 서울특별시 중구 세종대로 136 B1 107호,카페/디저트, 만원 미만,2022-06-29,맛있다,92.0,78.0,12.0,2.0,3.539130434782609,37.5625599,126.9762094,시청,0.3542701622365635
275,주신당,4.4,중구, 서울특별시 중구 퇴계로 411,주점, 만원-2만원,2022-07-17,맛있다,26.0,24.0,1.0,1.0,3.723076923076924,37.5596957,126.9809292,을지로입구,0.7248338272408372
276,무학,4.4,중구, 서울특별시 중구 왕십리로 399,한식, 만원-2만원,2022-06-14,맛있다,26.0,23.0,3.0,0.0,3.892307692307692,37.5650439,127.0257478,상왕십리,0.7693669746470362
277,무궁화,4.4,중구, 서울특별시 중구 남대문로 81 롯데호텔서울 본관 38F,한식, 4만원 이상,2022-06-23,맛있다,9.0,9.0,0.0,0.0,4.4,37.5658994,126.9826051,을지로입구,0.019531953402608642
278,어시장전주식당,4.4,중구, 서울특별시 중구 창경궁로 67-13,기타, 만원-2만원,2022-06-21,맛있다,18.0,17.0,1.0,0.0,4.155555555555556,37.5680211,126.9979989,을지로4가,0.15743828505478785
279,나이스타임2,4.4,중구, 서울특별시 중구 남대문로9길 6,양식, 2만원-3만원,2022-07-22,맛있다,6.0,5.0,1.0,0.0,3.6666666666666665,37.5667216,126.9815651,을지로입구,0.12234939796645083
280,동강나루터,4.4,중구, 서울특별시 중구 삼일대로12길 13,기타, 만원-2만원,2022-06-23,맛있다,14.0,12.0,2.0,0.0,3.771428571428572,37.566725,126.9886846,동대문,0.01676270226497081
281,야래향,4.3,중구, 서울특별시 중구 퇴계로10길 14 태공관 1F,중식, 2만원-3만원,2022-07-10,괜찮다,19.0,17.0,2.0,0.0,3.8473684210526313,37.5586497,126.9806205,을지로입구,0.8442723413318621
282,오트렉,4.3,중구, 서울특별시 중구 퇴계로41길 43 3F,다국적음식, 3만원-4만원,2022-07-04,맛있다,23.0,19.0,4.0,0.0,3.5521739130434784,37.5634969,126.9960854,충무로,0.29341352287019706
283,수와,4.3,중구, 서울특별시 중구 다산로11길 19 백석빌딩 신관 102호,양식, 만원-2만원,2021-06-26,맛있다,17.0,14.0,3.0,0.0,3.541176470588235,37.5548136,127.0095403,약수,0.13878638820780492
284,을지로양대장,4.3,중구, 서울특별시 중구 수표로 54-1 2F,한식, 만원-2만원,2022-05-26,맛있다,17.0,14.0,3.0,0.0,3.541176470588235,37.567547,126.9896042,동대문,0.13039895534914844
285,엘까페씨또바,4.3,중구, 서울특별시 중구 동호로11가길 25 1F,카페/디저트, 만원 미만,2022-07-10,맛있다,11.0,11.0,0.0,0.0,4.3,37.5536197,127.0088765,약수,0.20669430056716884
286,드로우에스프레소바,4.3,중구, 서울특별시 중구 서소문로6길 45 1F,카페/디저트, 만원 미만,2022-07-08,맛있다,11.0,10.0,1.0,0.0,3.909090909090909,37.559638,126.9670118,서대문,0.6825935752558956
287,세림,4.3,중구, 서울특별시 중구 을지로1길 32-3,한식, 2만원-3만원,2022-04-07,맛있다,6.0,5.0,1.0,0.0,3.583333333333333,37.5664134,126.9796638,서울역,0.22597945724685278
288,앨리키친,4.3,중구, 서울특별시 중구 퇴계로 304-14,양식, 만원-2만원,2022-01-31,맛있다,11.0,9.0,2.0,0.0,3.5181818181818176,37.5596957,126.9809292,을지로입구,0.7248338272408372
289,고씨네고추장찌개,4.3,중구, 서울특별시 중구 수표로 26 1F,한식, 만원 미만,2022-04-27,맛있다,5.0,5.0,0.0,0.0,4.3,37.567547,126.9896042,동대문,0.13039895534914844
290,존라멘,4.3,중구, 서울특별시 중구 퇴계로49길 33 1F,일식, 만원 미만,2022-07-09,맛있다,5.0,5.0,0.0,0.0,4.3,37.5632122,126.9997836,충정로,0.3113838925995112
291,마포쭈꾸미,4.3,중구, 서울특별시 중구 을지로15길 9-1,기타, 만원-2만원,2022-07-11,맛있다,7.0,7.0,0.0,0.0,4.3,37.5674185,126.9934802,을지로4가,0.38517916857088513
292,황소집,4.3,중구, 서울특별시 중구 충무로2길 2,한식, 2만원-3만원,2022-03-31,맛있다,7.0,7.0,0.0,0.0,4.3,37.5626201,126.9933662,충무로,0.1722121816582534
293,땡초곱창,4.3,중구, 서울특별시 중구 퇴계로87길 54,한식, 만원-2만원,2022-06-20,맛있다,9.0,9.0,0.0,0.0,4.3,37.5675813,127.0203802,동묘앞,0.7140091172514772
294,우동가조쿠,4.3,중구, 서울특별시 중구 동호로14길 23 2F,일식, 만원 미만,2022-08-07,맛있다,6.0,6.0,0.0,0.0,4.3,37.5574052,127.0103519,약수,0.3415040882013379
295,호우섬,4.3,중구, 서울특별시 중구 을지로 30 14F,중식, 2만원-3만원,2022-07-02,맛있다,5.0,5.0,0.0,0.0,4.3,37.566026,126.985473,을지로입구,0.24629827061507054
296,대원집,4.3,중구, 서울특별시 중구 을지로3길 30-4,한식, 만원-2만원,2022-07-31,맛있다,5.0,5.0,0.0,0.0,4.3,37.5660147,126.9814615,을지로입구,0.10745478223510223
297,신동궁감자탕,4.3,중구, 서울특별시 중구 명동9길 43,한식, 만원-2만원,5 일 전,맛있다,6.0,5.0,1.0,0.0,3.583333333333333,37.5649801,126.9844668,을지로입구,0.19845170074575794
298,스시 소우카이,4.2,중구, 서울특별시 중구 동호로35길 5 B1,일식, 2만원-3만원,2021-01-21,맛있다,11.0,10.0,1.0,0.0,3.8181818181818175,37.5662957,127.0015234,동대입구,0.30398781520252915
299,쓰리도어즈,4.2,중구, 서울특별시 중구 삼일대로12길 21,주점, 2만원-3만원,2022-07-27,괜찮다,23.0,21.0,2.0,0.0,3.834782608695652,37.566725,126.9886846,동대문,0.01676270226497081
300,온수반,4.2,중구, 서울특별시 중구 퇴계로34길 16-9,다국적음식, 만원-2만원,2022-06-15,맛있다,18.0,15.0,3.0,0.0,3.5,37.5601274,126.9933071,신당,0.14750546966844652
301,한가람,4.2,중구, 서울특별시 중구 남대문로5길 25,한식, 만원-2만원,2022-07-21,맛있다,8.0,7.0,1.0,0.0,3.675,37.5625071,126.9790776,시청,0.4055764382372258
302,황성집,4.2,중구, 서울특별시 중구 청파로 447-15,한식, 만원 미만,2022-07-29,괜찮다,14.0,12.0,2.0,0.0,3.6000000000000005,37.5562144,126.9689367,숙대입구,0.6153125374772579
303,옵튼,4.2,중구, 서울특별시 중구 만리재로 205-1,카페/디저트, 만원 미만,2022-07-20,맛있다,8.0,8.0,0.0,0.0,4.2,37.5558692,126.967714,숙대입구,0.6547168995394668
304,에딕티,4.1,중구, 서울특별시 중구 명동4길 15 1F,카페/디저트, 만원 미만,2022-08-01,괜찮다,9.0,8.0,1.0,0.0,3.644444444444444,37.5626116,126.9840352,을지로입구,0.4021764089903459
305,영덕회식당,4.1,중구, 서울특별시 중구 무교로 32 B1,기타, 만원-2만원,2022-07-13,맛있다,8.0,7.0,1.0,0.0,3.5874999999999995,37.5675475,126.9791037,서울역,0.11011859880001619
306,도마,4.1,중구, 서울특별시 중구 중림로 31 이화빌딩,한식, 2만원-3만원,2022-05-13,맛있다,8.0,8.0,0.0,0.0,4.1,37.5583607,126.9665778,서대문,0.8239022865573776
307,서울케밥,4.8,용산구, 서울특별시 용산구 새창로 181 선인상가 1F 11호,다국적음식, 만원 미만,2 일 전,맛있다,86.0,78.0,5.0,3.0,4.01860465116279,37.5396724,126.9574303,효창공원앞,0.34880367771590537
308,포카치아델라스트라다,4.7,용산구, 서울특별시 용산구 한강대로46길 11,양식, 만원-2만원,2 일 전,괜찮다,52.0,41.0,10.0,1.0,3.5250000000000004,37.5310512,126.9712177,신용산,0.06315370944385723
309,카밀로한남,4.7,용산구, 서울특별시 용산구 한남대로20길 61-5 3F,양식, 2만원-3만원,2022-07-04,괜찮다,34.0,28.0,5.0,1.0,3.594117647058824,37.5352464,127.0107282,한남,0.5825978969941104
310,양인환대극진,4.7,용산구, 서울특별시 용산구 한강대로40길 14 1F 104호,양식, 3만원-4만원,21 시간 전,맛있다,11.0,11.0,0.0,0.0,4.7,37.5304314,126.9706468,신용산,0.040166828675123355
311,치즈플로,4.7,용산구, 서울특별시 용산구 이태원로49길 19,양식, 3만원-4만원,2022-08-09,맛있다,49.0,42.0,6.0,1.0,3.836734693877551,37.536948,126.9990925,한남,1.280713718167519
312,시멘트,4.7,용산구, 서울특별시 용산구 대사관로11길 57,양식, 2만원-3만원,2022-07-16,맛있다,21.0,19.0,1.0,1.0,3.804761904761905,37.5350498,127.0017542,한남,0.9666047959500972
313,조이스팔라펠,4.7,용산구, 서울특별시 용산구 신흥로15길 18-8 보다서울 1F,다국적음식, 만원-2만원,2022-07-27,맛있다,14.0,14.0,0.0,0.0,4.7,37.5441827,126.9858251,남영,1.3168548424617952
314,세스타,4.7,용산구, 서울특별시 용산구 한남대로20길 21-18 1F,양식, 3만원-4만원,2022-05-15,맛있다,13.0,13.0,0.0,0.0,4.7,37.5352464,127.0107282,한남,0.5825978969941104
315,레에스티우,4.6,용산구, 서울특별시 용산구 대사관로20길 5,다국적음식, 만원-2만원,2022-08-05,맛있다,34.0,30.0,3.0,1.0,3.788235294117647,37.5325517,127.0024899,한남,0.7759150109106862
316,양인환대 정인,4.6,용산구, 서울특별시 용산구 한강대로40길 14 2F 104호,한식, 4만원 이상,2022-07-12,맛있다,7.0,7.0,0.0,0.0,4.6,37.5304314,126.9706468,신용산,0.040166828675123355
317,시칠리,4.6,용산구, 서울특별시 용산구 이태원로55가길 13,양식, 4만원 이상,4 일 전,맛있다,15.0,14.0,0.0,1.0,3.68,37.5364432,126.9992492,한남,1.2364015413999832
318,카카오봄,4.6,용산구, 서울특별시 용산구 한강대로62길 45-11,카페/디저트, 만원 미만,1 시간 전,맛있다,31.0,29.0,1.0,1.0,4.006451612903225,37.5327854,126.9735417,신용산,0.3425989852407991
319,알레즈,4.6,용산구, 서울특별시 용산구 독서당로 89,양식, 4만원 이상,2022-08-03,맛있다,12.0,11.0,1.0,0.0,4.216666666666666,37.5311476,127.0077012,한남,0.2919388467956732
320,뷔봉,4.6,용산구, 서울특별시 용산구 원효로83길 7-2 B1,다국적음식, 만원-2만원,2022-06-02,맛있다,10.0,9.0,1.0,0.0,4.14,37.5396411,126.9669848,이촌,0.0790661772896775
321,FOURB,4.6,용산구, 서울특별시 용산구 한강대로23길 55 리빙파크 4F,카페/디저트, 만원 미만,2022-08-04,괜찮다,28.0,26.0,2.0,0.0,4.271428571428571,37.5288518,126.9659695,용산,0.1697345860552346
322,뮤땅,4.6,용산구, 서울특별시 용산구 대사관로12길 4-2 2F,다국적음식, 3만원-4만원,2022-04-24,맛있다,12.0,11.0,1.0,0.0,4.216666666666666,37.533352,127.0015267,한남,0.8889641963837226
323,라따뚜이인서울,4.6,용산구, 서울특별시 용산구 청파로 270-2 1F,다국적음식, 3만원-4만원,2022-04-28,맛있다,8.0,8.0,0.0,0.0,4.6,37.533743,126.9665466,신용산,0.4842909795222745
324,브라이리퍼블릭,4.5,용산구, 서울특별시 용산구 이태원로14길 19,다국적음식, 만원-2만원,3 일 전,맛있다,372.0,306.0,60.0,6.0,3.556451612903226,37.5330632,126.9912338,서빙고,1.4773256819111065
325,한남작업실,4.5,용산구, 서울특별시 용산구 이태원로55나길 7,카페/디저트, 만원 미만,2022-08-07,맛있다,58.0,47.0,11.0,0.0,3.646551724137931,37.5372481,126.9985606,한남,1.338250976149252
326,반창고,4.5,용산구, 서울특별시 용산구 회나무로 20-1 B1,주점, 2만원-3만원,2022-08-09,맛있다,16.0,16.0,0.0,0.0,4.5,37.5397755,126.9915991,남영,1.8034006458943832
327,아티장베이커스,4.5,용산구, 서울특별시 용산구 한남대로18길 26 1F,카페/디저트, 만원 미만,2022-05-29,괜찮다,60.0,55.0,5.0,0.0,4.125,37.5342702,127.0081985,한남,0.5222202466242384
328,푸에고,4.5,용산구, 서울특별시 용산구 유엔빌리지길 14,양식, 2만원-3만원,2022-06-28,맛있다,13.0,12.0,1.0,0.0,4.153846153846154,37.5379267,127.013466,한남,0.9141680280350936
329,주파카,4.5,용산구, 서울특별시 용산구 이태원로54길 68-5 1F,다국적음식, 만원-2만원,2022-07-23,맛있다,11.0,10.0,1.0,0.0,4.090909090909091,37.535764,127.0011054,한남,1.0597389591393587
330,화양연가,4.5,용산구, 서울특별시 용산구 한강대로76길 5,중식, 2만원-3만원,2022-07-14,맛있다,37.0,35.0,2.0,0.0,4.256756756756757,37.5415795,126.9738164,남영,0.22488445447187194
331,부토,4.5,용산구, 서울특별시 용산구 한남대로27가길 32,한식, 3만원-4만원,2022-04-24,맛있다,16.0,15.0,1.0,0.0,4.21875,37.5385431,127.0027605,한남,1.1785342867308242
332,봉쥬르스고이,4.5,용산구, 서울특별시 용산구 회나무로32 B1,일식, 2만원-3만원,2022-08-06,맛있다,7.0,7.0,0.0,0.0,4.5,0.0,0.0,개화,13158.583793832535
333,디템포레,4.4,용산구, 서울특별시 용산구 한남대로 37 1F,다국적음식, 4만원 이상,2022-06-19,맛있다,18.0,15.0,3.0,0.0,3.6666666666666665,37.5267086,127.01337857176838,한남,0.43705900630115146
334,우라만,4.4,용산구, 서울특별시 용산구 소월로38길 25 1F,한식, 4만원 이상,2022-05-29,맛있다,16.0,16.0,0.0,0.0,4.4,37.5437767,126.9900896,남영,1.6781530654086418
335,부산복국 고래고기,4.4,용산구, 서울특별시 용산구 한강대로 272-1 2F,기타, 만원-2만원,2022-05-25,맛있다,12.0,11.0,1.0,0.0,4.033333333333334,37.5436856,126.9722081,남영,0.25283756793386436
336,캘리포니아키친앤크래프트펍,4.4,용산구, 서울특별시 용산구 회나무로26길 3 라인빌 2F,주점, 만원-2만원,2022-05-01,맛있다,32.0,30.0,2.0,0.0,4.125,37.5391285,126.9905567,남영,1.7217929309254296
337,끌라시끄,4.4,용산구, 서울특별시 용산구 우사단로4길 28,카페/디저트, 만원 미만,2022-05-23,맛있다,15.0,14.0,1.0,0.0,4.106666666666667,37.5313418,126.9995445,한남,0.9933679270227512
338,쎄니에,4.4,용산구, 서울특별시 용산구 원효로83길 7-6 1F,양식, 2만원-3만원,2022-05-09,맛있다,14.0,12.0,2.0,0.0,3.771428571428572,37.5396411,126.9669848,이촌,0.0790661772896775
339,이태원소주집,4.4,용산구, 서울특별시 용산구 녹사평대로40길 46 2F,주점, 2만원-3만원,2022-04-02,괜찮다,27.0,25.0,2.0,0.0,4.074074074074074,37.5346536,126.9892152,서빙고,1.6631356149142167
340,용산양꼬치,4.4,용산구, 서울특별시 용산구 백범로99길 60 1F,중식, 만원-2만원,2022-03-30,맛있다,24.0,21.0,3.0,0.0,3.85,37.5363746,126.9720108,이촌,0.5536891372254461
341,서울브루어리,4.4,용산구, 서울특별시 용산구 한남대로18길 18 2F,주점, 만원-2만원,2022-06-27,맛있다,13.0,13.0,0.0,0.0,4.4,37.5342702,127.0081985,한남,0.5222202466242384
342,바우카페,4.4,용산구, 서울특별시 용산구 한강대로62길 37 1F,카페/디저트, 만원 미만,3 일 전,맛있다,18.0,18.0,0.0,0.0,4.4,37.5327854,126.9735417,신용산,0.3425989852407991
343,미타스,4.4,용산구, 서울특별시 용산구 이촌로75길 16-9,주점, 만원-2만원,2022-06-16,맛있다,7.0,7.0,0.0,0.0,4.4,0.0,0.0,개화,13158.583793832535
344,쿠로이야,4.4,용산구, 서울특별시 용산구 이태원로16길 14-4,주점, 2만원-3만원,2022-06-06,맛있다,11.0,10.0,1.0,0.0,4.0,37.5332083,126.9915206,서빙고,1.493766546544289
345,잭슨피자,4.4,용산구, 서울특별시 용산구 서빙고로 67 상가 1F B12호,양식, 만원-2만원,2022-05-31,맛있다,13.0,13.0,0.0,0.0,4.4,37.5203054,126.9906594,서빙고,0.0740941133569187
346,바이두부,4.4,용산구, 서울특별시 용산구 소월로20길 10,양식, 만원-2만원,2022-02-17,맛있다,6.0,6.0,0.0,0.0,4.4,37.5437942,126.9842856,남영,1.1749654577265591
347,미국 양반통닭,4.4,용산구, 서울특별시 용산구 회나무로13가길 3-8,양식, 2만원-3만원,2022-06-25,맛있다,5.0,5.0,0.0,0.0,4.4,37.5414209,126.9917366,남영,1.8048714765950995
348,소세지하우스,4.4,용산구, 서울특별시 용산구 새창로 132 2F,양식, 만원-2만원,2022-07-23,맛있다,4.0,4.0,0.0,0.0,4.4,37.5396724,126.9574303,효창공원앞,0.34880367771590537
349,비일,4.4,용산구, 서울특별시 용산구 청파로45길 36,양식, 만원-2만원,2022-07-05,맛있다,7.0,7.0,0.0,0.0,4.4,37.5441215,126.9694468,남영,0.329038038444902
350,유용욱바베큐연구소,4.3,용산구, 서울특별시 용산구 한강대로84길 5-7 남영아케이드,양식, 4만원 이상,2022-03-18,맛있다,9.0,8.0,1.0,0.0,3.822222222222222,37.5444703,126.9730847,남영,0.36335047567859147
351,REVEAT,4.3,용산구, 서울특별시 용산구 독서당로29길 6 1F,다국적음식, 4만원 이상,2022-02-14,맛있다,17.0,15.0,2.0,0.0,3.794117647058824,37.5373448,127.0114598,한남,0.8187847333812033
352,스시이젠,4.3,용산구, 서울특별시 용산구 한강대로 95 래미안용산 더 센트럴 B2 247호,일식, 4만원 이상,2022-03-21,맛있다,8.0,7.0,1.0,0.0,3.7625,37.5436856,126.9722081,남영,0.25283756793386436
353,재인,4.3,용산구, 서울특별시 용산구 이태원로54길 48 2F,카페/디저트, 만원 미만,1 일 전,맛있다,16.0,15.0,1.0,0.0,4.03125,37.535764,127.0011054,한남,1.0597389591393587
354,누랑즈뉘,4.3,용산구, 서울특별시 용산구 녹사평대로46길 34-2,중식, 4만원 이상,2021-02-22,맛있다,20.0,18.0,2.0,0.0,3.87,37.5378533,126.9888247,남영,1.6014224501209342
355,뽀르누서울,4.3,용산구, 서울특별시 용산구 서빙고로91나길 46 1F,카페/디저트, 만원 미만,2022-07-20,맛있다,12.0,12.0,0.0,0.0,4.3,37.5226981,126.9978682,서빙고,0.6739690415239508
356,물고기주택,4.3,용산구, 서울특별시 용산구 한강대로48길 19,기타, 2만원-3만원,2022-06-26,괜찮다,18.0,15.0,3.0,0.0,3.583333333333333,37.5316987,126.9718147,신용산,0.148459062256548
357,몬스터플레이스,4.3,용산구, 서울특별시 용산구 청파로43길 70,양식, 만원 미만,2022-04-20,맛있다,26.0,22.0,4.0,0.0,3.6384615384615375,37.5438159,126.9691969,남영,0.3121710720453515
358,산수화,4.3,용산구, 서울특별시 용산구 한남대로20길 21-14,카페/디저트, 만원-2만원,2021-11-08,맛있다,10.0,10.0,0.0,0.0,4.3,37.5352464,127.0107282,한남,0.5825978969941104
359,탄산바,4.3,용산구, 서울특별시 용산구 이태원로49길 24-8,주점, 2만원-3만원,2022-08-02,맛있다,13.0,12.0,1.0,0.0,3.969230769230769,37.536948,126.9990925,한남,1.280713718167519
360,야키니쿠소문,4.3,용산구, 서울특별시 용산구 장문로 85 1F,일식, 2만원-3만원,2022-06-16,맛있다,8.0,8.0,0.0,0.0,4.3,37.5275066,126.9949768,서빙고,0.9226303456396769
361,Komad,4.3,용산구, 서울특별시 용산구 대사관로31길 20 2F,양식, 4만원 이상,2022-02-28,맛있다,6.0,5.0,1.0,0.0,3.583333333333333,37.5338555,127.0047989,한남,0.6725678963892571
362,팻캣,4.3,용산구, 서울특별시 용산구 신흥로 28,양식, 만원-2만원,2022-01-26,맛있다,18.0,16.0,2.0,0.0,3.822222222222222,37.5466133,126.9811628,숙대입구,0.9187687887109494
363,모르페커피,4.3,용산구, 서울특별시 용산구 원효로89길 13-1 1F,카페/디저트, 만원 미만,3 일 전,맛있다,9.0,9.0,0.0,0.0,4.3,37.5407363,126.9683083,이촌,0.0936525124705233
364,한길포장마차,4.3,용산구, 서울특별시 용산구 이촌로75길 16-9,주점, 만원-2만원,2022-05-28,맛있다,10.0,10.0,0.0,0.0,4.3,0.0,0.0,개화,13158.583793832535
365,심퍼티쿠시,4.3,용산구, 서울특별시 용산구 한강대로52길 17-3 1F,주점, 3만원-4만원,2022-07-31,맛있다,4.0,4.0,0.0,0.0,4.3,37.5319969,126.9720943,신용산,0.1892454988503477
366,원조숯불통닭바베큐,4.3,용산구, 서울특별시 용산구 효창원로 99,한식, 만원-2만원,2022-06-18,맛있다,4.0,4.0,0.0,0.0,4.3,37.5425527,126.9621542,효창공원앞,0.3725543120360851
367,팟카파우,4.2,용산구, 서울특별시 용산구 신흥로 97-6 2F,다국적음식, 만원-2만원,2022-08-08,맛있다,21.0,19.0,2.0,0.0,3.8,37.5466133,126.9811628,숙대입구,0.9187687887109494
368,스톡드,4.2,용산구, 서울특별시 용산구 한강대로7길 18-13 2F,카페/디저트, 만원 미만,1 일 전,괜찮다,14.0,12.0,2.0,0.0,3.6000000000000005,37.5245498,126.9619327,용산,0.5135573098360086
369,데일리루틴,4.2,용산구, 서울특별시 용산구 한강대로84길 5-8,카페/디저트, 만원 미만,2022-08-07,괜찮다,11.0,10.0,1.0,0.0,3.8181818181818175,37.5444703,126.9730847,남영,0.36335047567859147
370,티하우스레몬,4.2,용산구, 서울특별시 용산구 한강대로 95 래미안 용산더센트럴 B2 16-17호,카페/디저트, 만원 미만,2022-02-03,괜찮다,16.0,14.0,2.0,0.0,3.675,37.5436856,126.9722081,남영,0.25283756793386436
371,하리서울,4.2,용산구, 서울특별시 용산구 한강대로 153-1 1F 101호,주점, 4만원 이상,2022-07-16,맛있다,7.0,6.0,1.0,0.0,3.6000000000000005,37.5436856,126.9722081,남영,0.25283756793386436
372,와인집,4.2,용산구, 서울특별시 용산구 백범로90라길 45,주점, 만원-2만원,2022-06-26,맛있다,5.0,5.0,0.0,0.0,4.2,37.538861,126.9693233,이촌,0.19038148670559712
373,카우치커피,4.2,용산구, 서울특별시 용산구 한강대로104길 6 2F,카페/디저트, 만원 미만,2022-08-10,맛있다,5.0,5.0,0.0,0.0,4.2,37.550079,126.9760976,숙대입구,0.33124799946236205
374,당케커피,4.2,용산구, 서울특별시 용산구 한강대로48길 16,카페/디저트, 만원 미만,2022-06-09,맛있다,4.0,4.0,0.0,0.0,4.2,37.5316987,126.9718147,신용산,0.148459062256548
375,원효림,4.2,용산구, 서울특별시 용산구 백범로 322-1,한식, 만원-2만원,2021-11-21,맛있다,6.0,6.0,0.0,0.0,4.2,37.5400102,126.9596662,효창공원앞,0.17031557250703025
376,인생의하이라이트,4.2,용산구, 서울특별시 용산구 이촌로77길 19 이촌종합상가,주점, 만원-2만원,2022-07-15,맛있다,6.0,6.0,0.0,0.0,4.2,0.0,0.0,개화,13158.583793832535
377,백경식당,4.2,용산구, 서울특별시 용산구 한강대로54길 20,한식, 만원 미만,2022-06-15,맛있다,4.0,4.0,0.0,0.0,4.2,37.5325642,126.9726141,신용산,0.26657174112476334
378,디핀옥수,4.8,성동구, 서울특별시 성동구 독서당로 194 B1,양식, 2만원-3만원,2022-08-09,맛있다,29.0,26.0,2.0,1.0,3.972413793103448,37.5477024,127.0207921,옥수,0.46710482173155404
379,미오도쿄다이닝,4.8,성동구, 서울특별시 성동구 연무장5가길 7 현대테라스타워 117호,일식, 만원-2만원,2022-08-09,괜찮다,46.0,42.0,4.0,0.0,4.3826086956521735,37.5430555,127.0551575,성수,0.22960433635406385
380,쿠나,4.7,성동구, 서울특별시 성동구 연무장5길 9-16 105호,양식, 만원-2만원,2022-06-27,맛있다,51.0,45.0,4.0,2.0,3.77843137254902,37.5440446,127.0528161,성수,0.36400100265524366
381,프롤라,4.6,성동구, 서울특별시 성동구 연무장17길 5 1F,카페/디저트, 만원 미만,3 일 전,맛있다,37.0,32.0,5.0,0.0,3.978378378378378,37.5422567,127.0616048,성수,0.4910467130398388
382,로우커피스탠드,4.6,성동구, 서울특별시 성동구 왕십리로4길 28-2 1F,카페/디저트, 만원 미만,2022-07-13,맛있다,81.0,70.0,9.0,2.0,3.748148148148148,37.546296,127.0461849,뚝섬,0.14390325798929965
383,돈까스전원,4.6,성동구, 서울특별시 성동구 왕십리로24길 13,일식, 만원-2만원,2022-07-06,맛있다,31.0,26.0,4.0,1.0,3.561290322580645,37.5642632,127.0343172,왕십리,0.38478797726620206
384,지우관,4.6,성동구, 서울특별시 성동구 뚝섬로9길 16,중식, 만원-2만원,3 일 전,맛있다,8.0,8.0,0.0,0.0,4.6,37.5383028,127.0569882,성수,0.700377185803521
385,발렁스,4.5,성동구, 서울특별시 성동구 성수일로4길 49-1,카페/디저트, 만원 미만,6 일 전,맛있다,49.0,43.0,6.0,0.0,3.948979591836735,37.5420705,127.0536332,성수,0.40168174213985997
386,가조쿠,4.5,성동구, 서울특별시 성동구 연무장길 31-2 1F,일식, 만원 미만,2022-07-30,맛있다,39.0,32.0,7.0,0.0,3.692307692307693,37.5411948,127.0594637,성수,0.44175470452381577
387,성수 수집,4.5,성동구, 서울특별시 성동구 성수일로1길 10 1F,일식, 4만원 이상,2022-06-04,맛있다,6.0,5.0,1.0,0.0,3.75,37.541831,127.0477419,뚝섬,0.5953369351886241
388,인덕상점,4.5,성동구, 서울특별시 성동구 매봉길 2 2F,일식, 3만원-4만원,3 시간 전,괜찮다,5.0,4.0,1.0,0.0,3.6,37.5464723,127.013359,옥수,0.4557186538672551
389,SUSHI702,4.5,성동구, 서울특별시 성동구 매봉길 20 1F 1호,일식, 2만원-3만원,2021-11-23,맛있다,4.0,4.0,0.0,0.0,4.5,37.5464723,127.013359,옥수,0.4557186538672551
390,오스테리아 파로,4.5,성동구, 서울특별시 성동구 서울숲6길 20,양식, 2만원-3만원,2022-04-13,맛있다,4.0,4.0,0.0,0.0,4.5,37.547576,127.0431547,서울숲,0.19723132059588408
391,마테오견문록,4.4,성동구, 서울특별시 성동구 금호로 17,양식, 2만원-3만원,2022-06-19,맛있다,30.0,26.0,4.0,0.0,3.8133333333333335,37.5502402,127.0260283,신금호,0.23868940869080527
392,당도,4.4,성동구, 서울특별시 성동구 왕십리로 80 2F,카페/디저트, 만원 미만,2022-07-09,맛있다,49.0,41.0,8.0,0.0,3.6816326530612247,37.5515075,127.043951,서울숲,0.2466162029298235
393,높은산,4.4,성동구, 서울특별시 성동구 성수이로 18-1,카페/디저트, 만원 미만,2022-07-30,맛있다,15.0,15.0,0.0,0.0,4.4,37.542162,127.0562487,성수,0.27693002365096914
394,마리오네,4.4,성동구, 서울특별시 성동구 성수이로12길 15 1F,양식, 만원-2만원,2022-04-29,맛있다,7.0,7.0,0.0,0.0,4.4,37.5399318,127.0558635,성수,0.5269301375816982
395,먼치스앤구디스,4.4,성동구, 서울특별시 성동구 연무장길 33 1F,카페/디저트, 만원 미만,2022-06-06,맛있다,8.0,8.0,0.0,0.0,4.4,37.5411948,127.0594637,성수,0.44175470452381577
396,성수베이킹스튜디오,4.3,성동구, 서울특별시 성동구 서울숲2길 46 B1,카페/디저트, 만원 미만,2022-07-25,괜찮다,28.0,23.0,5.0,0.0,3.532142857142857,37.5466768,127.042247,서울숲,0.3178982312705015
397,포지티브 서울숲,4.3,성동구, 서울특별시 성동구 서울숲2길 45,카페/디저트, 만원 미만,1 일 전,맛있다,18.0,16.0,2.0,0.0,3.822222222222222,37.5466768,127.042247,서울숲,0.3178982312705015
398,패딩턴,4.3,성동구, 서울특별시 성동구 독서당로 317-2,주점, 2만원-3만원,2022-01-10,괜찮다,10.0,9.0,1.0,0.0,3.87,37.5477024,127.0207921,옥수,0.46710482173155404
399,더즌오이스터,4.3,성동구, 서울특별시 성동구 서울숲4길 12-7,양식, 2만원-3만원,2022-04-29,맛있다,10.0,9.0,1.0,0.0,3.87,37.5470545,127.0424257,서울숲,0.273107527602757
400,투그,4.3,성동구, 서울특별시 성동구 성수이로14길 5 1F,양식, 만원 미만,2022-07-09,맛있다,6.0,6.0,0.0,0.0,4.3,37.5412325,127.0566074,성수,0.3753465911432022
401,시옹마오,4.3,성동구, 서울특별시 성동구 연무장7길 7-1 3F,다국적음식, 만원 미만,1 일 전,맛있다,9.0,8.0,1.0,0.0,3.822222222222222,37.54353,127.054599,성수,0.2340715181009689
402,기미사,4.3,성동구, 서울특별시 성동구 성수이로26길 47 B1-1F,카페/디저트, 만원 미만,2022-04-16,맛있다,8.0,7.0,1.0,0.0,3.7625,37.545291,127.0614099,금호,0.33755765297171547
403,금호모소리,4.3,성동구, 서울특별시 성동구 장터길 32 1F,한식, 만원-2만원,2022-04-26,맛있다,5.0,5.0,0.0,0.0,4.3,37.5483314,127.0162325,옥수,0.170926961294801
404,눈꽃돼지,4.3,성동구, 서울특별시 성동구 왕십리로8길 17-4,한식, 만원-2만원,2022-07-17,맛있다,4.0,4.0,0.0,0.0,4.3,37.5463983,127.0456597,뚝섬,0.17467304874710143
405,스트로베리32,4.3,성동구, 서울특별시 성동구 왕십리로10길 9-31 2F,카페/디저트, 2만원-3만원,2022-07-13,맛있다,4.0,4.0,0.0,0.0,4.3,37.5473031,127.0449258,뚝섬,0.21683439521785902
406,먹거리돌소곱창,4.3,성동구, 서울특별시 성동구 장터길 30,한식,0,2022-06-28,맛있다,6.0,6.0,0.0,0.0,4.3,37.5483314,127.0162325,옥수,0.170926961294801
407,김경자원조손칼국수보쌈,4.3,성동구, 서울특별시 성동구 금호산2길 20-1,한식, 만원 미만,2022-04-20,맛있다,4.0,4.0,0.0,0.0,4.3,37.5490248,127.023133,신금호,0.38390422279593056
408,포포민즈낫띵,4.2,성동구, 서울특별시 성동구 왕십리로10길 8 1F,카페/디저트, 만원 미만,2022-08-11,맛있다,17.0,15.0,2.0,0.0,3.7058823529411766,37.5473031,127.0449258,뚝섬,0.21683439521785902
409,테이퍼드커피,4.2,성동구, 서울특별시 성동구 독서당로 216 1F,카페/디저트, 만원 미만,2022-06-10,맛있다,14.0,12.0,2.0,0.0,3.6000000000000005,37.5477024,127.0207921,옥수,0.46710482173155404
410,롸카두들내쉬빌핫치킨,4.2,성동구, 서울특별시 성동구 성수일로4길 25 108호,양식, 만원 미만,2022-07-02,맛있다,8.0,7.0,1.0,0.0,3.675,37.5420705,127.0536332,성수,0.40168174213985997
411,파티세리후르츠,4.2,성동구, 서울특별시 성동구 아차산로5길 37-1 1F,카페/디저트, 만원 미만,2022-06-08,맛있다,5.0,5.0,0.0,0.0,4.2,37.5472982,127.0525683,뚝섬,0.4575863837200813
412,센서리커피로스터스,4.2,성동구, 서울특별시 성동구 독서당로 315-13 1F,카페/디저트, 만원 미만,2022-08-09,맛있다,5.0,5.0,0.0,0.0,4.2,37.5477024,127.0207921,옥수,0.46710482173155404
413,이월로스터스,4.2,성동구, 서울특별시 성동구 서울숲2길 46,카페/디저트, 만원 미만,2022-06-06,맛있다,9.0,8.0,1.0,0.0,3.733333333333333,37.5466768,127.042247,서울숲,0.3178982312705015
414,다운타우너,4.2,성동구, 서울특별시 성동구 연무장3길 9,양식, 만원 미만,2022-07-15,맛있다,6.0,6.0,0.0,0.0,4.2,37.5449278,127.0517973,성수,0.44999644010423673
415,고공,4.2,성동구, 서울특별시 성동구 왕십리로8길 10,한식, 2만원-3만원,2022-06-30,맛있다,8.0,7.0,1.0,0.0,3.675,37.5463983,127.0456597,뚝섬,0.17467304874710143
416,디플랫,4.2,성동구, 서울특별시 성동구 연무장길 90 1F,카페/디저트, 만원 미만,2022-07-31,맛있다,4.0,4.0,0.0,0.0,4.2,37.5411948,127.0594637,성수,0.44175470452381577
417,모찌모찌브래드,4.1,성동구, 서울특별시 성동구 한림말3길 14,카페/디저트, 만원 미만,2022-04-19,맛있다,18.0,16.0,2.0,0.0,3.644444444444444,37.5424154,127.0158758,옥수,0.8294128681094979
418,만나떡볶이,4.1,성동구, 서울특별시 성동구 왕십리로24길 27,한식, 만원 미만,2022-06-12,맛있다,9.0,8.0,1.0,0.0,3.644444444444444,37.5642632,127.0343172,왕십리,0.38478797726620206
419,만두전빵,4.1,성동구, 서울특별시 성동구 행당로15길 2,한식, 만원 미만,2021-11-20,맛있다,28.0,26.0,2.0,0.0,3.807142857142857,37.5595893,127.0307231,상왕십리,0.14200620015514104
420,전풍호텔라운지,4.1,성동구, 서울특별시 성동구 무학봉28길 7 전풍호텔라운지 1F,양식, 만원-2만원,2022-08-10,맛있다,11.0,10.0,1.0,0.0,3.727272727272727,37.5608415,127.0342735,왕십리,0.18301264449903973
421,라프레플루트,4.1,성동구, 서울특별시 성동구 서울숲2길 8-8 2F,카페/디저트, 만원 미만,2022-07-17,맛있다,6.0,6.0,0.0,0.0,4.1,37.5466768,127.042247,서울숲,0.3178982312705015
422,메종파이프그라운드,4.1,성동구, 서울특별시 성동구 왕십리로 83-21 B124-5호,카페/디저트, 만원 미만,2022-04-02,맛있다,7.0,6.0,1.0,0.0,3.514285714285714,37.5515075,127.043951,서울숲,0.2466162029298235
423,정돈,4.1,성동구, 서울특별시 성동구 왕십리로 83-21 B1,일식, 만원-2만원,2022-06-30,맛있다,5.0,5.0,0.0,0.0,4.1,37.5515075,127.043951,서울숲,0.2466162029298235
424,에이투비,4.0,성동구, 서울특별시 성동구 아차산로11길 3 2F,카페/디저트, 만원 미만,2022-05-21,맛있다,9.0,8.0,1.0,0.0,3.555555555555556,37.5457316,127.059965,금호,0.23036948051488576
425,OUDO,4.0,성동구, 서울특별시 성동구 성수일로 55 106호,카페/디저트, 만원 미만,1 일 전,맛있다,8.0,7.0,1.0,0.0,3.5,37.5477939,127.0509235,뚝섬,0.3198161366508977
426,주052,4.0,성동구, 서울특별시 성동구 고산자로14길 26,주점, 2만원-3만원,2022-06-15,맛있다,11.0,10.0,1.0,0.0,3.636363636363636,37.5625015,127.0375303,왕십리,0.18217898398925517
427,멕시칼리,4.6,광진구, 서울특별시 광진구 능동로36길 181,다국적음식, 만원 미만,6 일 전,맛있다,30.0,27.0,3.0,0.0,4.14,37.5565026,127.0790563,군자,0.0803238003146947
428,뚝방길 홍차가게,4.5,광진구, 서울특별시 광진구 자양강변길 277,카페/디저트, 만원 미만,2022-07-13,맛있다,66.0,59.0,5.0,2.0,3.75,37.5317475,127.0668818,뚝섬유원지,0.8570411128446676
429,시홍쓰,4.5,광진구, 서울특별시 광진구 능동로17길 5 1F,중식, 만원 미만,2022-07-15,맛있다,15.0,14.0,1.0,0.0,4.2,37.5471214,127.0705407,어린이대공원,0.4078434537857322
430,얼땅쟈,4.5,광진구, 서울특별시 광진구 동일로18길 68,중식, 만원-2만원,2022-08-10,맛있다,12.0,11.0,1.0,0.0,4.125,37.5390686,127.0661496,건대입구,0.3132486365780409
431,플록,4.4,광진구, 서울특별시 광진구 자양로19길 8 광석빌딩 1F,다국적음식, 만원-2만원,2022-06-05,맛있다,15.0,14.0,1.0,0.0,4.106666666666667,37.5384403,127.0813388,대치,0.39136328234968476
432,이화만두,4.4,광진구, 서울특별시 광진구 능동로 278-1,한식, 만원 미만,2022-07-30,맛있다,9.0,9.0,0.0,0.0,4.4,37.5398794,127.07056,건대입구,0.16801183523538668
433,남한강민물매운탕,4.4,광진구, 서울특별시 광진구 동일로 150,기타, 만원-2만원,2022-06-29,맛있다,14.0,14.0,0.0,0.0,4.4,37.5402765,127.0629979,건대입구,0.5319210235487476
434,환이네갈비살 (휴업중),4.4,광진구, 서울특별시 광진구 동일로24길 70,한식, 만원-2만원,2022-05-31,맛있다,15.0,13.0,2.0,0.0,3.8133333333333335,37.542714,127.0694314,어린이대공원,0.125292166344614
435,드로잉레시피,4.4,광진구, 서울특별시 광진구 뚝섬로33길 45 상석빌딩,양식, 만원-2만원,2022-06-20,맛있다,9.0,9.0,0.0,0.0,4.4,37.5364687,127.0700048,건대입구,0.4840683582524018
436,로이베이커리카페,4.3,광진구, 서울특별시 광진구 능동로 36 1F,카페/디저트, 만원 미만,2022-08-03,맛있다,17.0,17.0,0.0,0.0,4.3,37.5398794,127.07056,건대입구,0.16801183523538668
437,폽타이,4.3,광진구, 서울특별시 광진구 자양번영로6길 60 1F,다국적음식, 만원-2만원,2022-06-17,맛있다,8.0,8.0,0.0,0.0,4.3,37.5320101,127.0774872,뚝섬유원지,0.42768742179121044
438,선장훅,4.3,광진구, 서울특별시 광진구 동일로24길 38-1 1F,기타, 3만원-4만원,2022-01-29,맛있다,7.0,6.0,1.0,0.0,3.6857142857142855,37.542714,127.0694314,어린이대공원,0.125292166344614
439,초라멘,4.2,광진구, 서울특별시 광진구 능동로13길 80 1F,일식, 만원 미만,2022-04-13,맛있다,20.0,17.0,3.0,0.0,3.5700000000000003,37.5453898,127.0681171,어린이대공원,0.30101526600917916
440,미주류,4.2,광진구, 서울특별시 광진구 면목로 31,주점, 만원-2만원,2022-05-08,맛있다,7.0,7.0,0.0,0.0,4.2,37.5588288,127.0773851,군자,0.2893956228749947
441,Daughter,4.2,광진구, 서울특별시 광진구 아차산로31길 40,카페/디저트, 만원 미만,2022-08-08,맛있다,13.0,12.0,1.0,0.0,3.876923076923077,37.5425138,127.0700139,어린이대공원,0.11307240208603714
442,최가커피회관,4.2,광진구, 서울특별시 광진구 능동로13길 30 B1,카페/디저트, 만원 미만,2022-06-19,맛있다,7.0,7.0,0.0,0.0,4.2,37.5453898,127.0681171,어린이대공원,0.30101526600917916
443,스미다,4.1,광진구, 서울특별시 광진구 천호대로109길 18 1F,카페/디저트, 만원 미만,4 일 전,괜찮다,17.0,15.0,2.0,0.0,3.617647058823529,37.558734,127.0817926,군자,0.2658110732717909
444,알고,4.1,광진구, 서울특별시 광진구 광나루로17길 10 2F,주점, 만원-2만원,2022-06-28,맛있다,13.0,12.0,1.0,0.0,3.784615384615385,37.5487444,127.0732413,어린이대공원,0.6358938748388782
445,민정식당,4.1,광진구, 서울특별시 광진구 아차산로42길 41-4 1F,한식, 만원-2만원,2022-07-19,맛있다,18.0,16.0,2.0,0.0,3.644444444444444,37.5361166,127.0788553,뚝섬유원지,0.3139267003238401
446,델비노,4.0,광진구, 서울특별시 광진구 워커힐로 177 비스타 워커힐 1F,양식, 3만원-4만원,2 일 전,괜찮다,8.0,7.0,1.0,0.0,3.5,37.5463039,127.0980181,광나루,0.6575609712127045
447,포크포크,4.0,광진구, 서울특별시 광진구 동일로22길 117-16 1F,한식, 만원 미만,2022-08-03,맛있다,9.0,8.0,1.0,0.0,3.555555555555556,37.5419143,127.0680063,건대입구,0.1565123455253498
448,김돈이,3.9,광진구, 서울특별시 광진구 아차산로 397,한식, 만원-2만원,2022-06-13,맛있다,6.0,6.0,0.0,0.0,3.9,37.5461477,127.105331,광나루,0.5192911178009201
449,대성반점,4.6,강동구, 서울특별시 강동구 천중로15길 37,중식, 만원 미만,2022-07-30,맛있다,6.0,6.0,0.0,0.0,4.6,37.5462354,127.1283914,암사,0.2809366224482208
450,등갈비달인,4.6,강동구, 서울특별시 강동구 천호대로158길 25 1F,한식, 만원-2만원,2022-07-31,맛있다,8.0,8.0,0.0,0.0,4.6,37.5364954,127.1266002,천호,0.36762877896608936
451,신흥정육식당,4.4,강동구, 서울특별시 강동구 양재대로89길 16,한식, 2만원-3만원,2022-06-05,맛있다,11.0,10.0,1.0,0.0,4.0,37.5273921,127.1324983,둔촌동,0.33225473138973505
452,짜장면 (휴업중),4.3,강동구, 서울특별시 강동구 진황도로 127 103호,중식, 만원 미만,2022-07-17,맛있다,4.0,4.0,0.0,0.0,4.3,37.5317589,127.1419176,둔촌동,0.6742004997926487
453,고모네원조콩탕북어탕,4.3,강동구, 서울특별시 강동구 풍성로57길 13,기타, 만원-2만원,2022-08-07,맛있다,8.0,7.0,1.0,0.0,3.7625,37.5305156,127.1364162,둔촌동,0.31432475429648193
454,우리동네막국수국밥,4.3,강동구, 서울특별시 강동구 상암로4길 9 1F,한식, 만원 미만,2022-05-28,맛있다,7.0,7.0,0.0,0.0,4.3,37.5471983,127.1252971,암사,0.257716932348262
455,영화정해장국,4.3,강동구, 서울특별시 강동구 진황도로43길 9 1F,한식, 만원 미만,2022-06-15,맛있다,11.0,11.0,0.0,0.0,4.3,37.5365792,127.1383277,길동,0.7466832555746762
456,대팔이네,4.3,강동구, 서울특별시 강동구 구천면로24길 20-9 1F,한식, 만원-2만원,2022-07-15,맛있다,7.0,7.0,0.0,0.0,4.3,37.5399472,127.125547,천호,0.242001051179244
457,꿀꿀진순대국,4.3,강동구, 서울특별시 강동구 양재대로103길 70,한식, 만원 미만,2022-07-13,맛있다,4.0,4.0,0.0,0.0,4.3,37.5335625,127.1352089,둔촌동,0.6591580010588213
458,캄포,4.2,강동구, 서울특별시 강동구 양재대로128길 41 1F,양식, 2만원-3만원,2022-05-09,맛있다,8.0,7.0,1.0,0.0,3.675,37.5444639,127.145278,길동,0.5891991779850626
459,푸지미곱창,4.2,강동구, 서울특별시 강동구 천호옛14길 23,한식, 만원 미만,2022-06-07,맛있다,18.0,15.0,3.0,0.0,3.5,37.5365436,127.1269902,천호,0.3915710808393252
460,천호누룽지통닭구이,4.1,강동구, 서울특별시 강동구 천호옛14길 35 1F,한식, 만원-2만원,2022-06-28,맛있다,8.0,7.0,1.0,0.0,3.5874999999999995,37.5365436,127.1269902,천호,0.3915710808393252
461,백년화편,4.1,강동구, 서울특별시 강동구 양재대로81길 18 1F,카페/디저트, 만원 미만,2021-11-21,맛있다,16.0,14.0,2.0,0.0,3.5874999999999995,37.523526,127.1317008,둔촌동,0.6126357166937896
462,반피셋,4.0,강동구, 서울특별시 강동구 양재대로 1500 105호,다국적음식, 만원-2만원,2022-04-17,맛있다,14.0,13.0,1.0,0.0,3.7142857142857135,37.5526401,127.1441574,고덕,0.2076298184501942
463,느린토끼,4.5,강동구, 서울특별시 강동구 천호대로168가길 29,카페/디저트, 만원 미만,2019-08-27,맛있다,7.0,7.0,0.0,0.0,4.5,37.5351822,127.129348,천호,0.6487421753905177
464,오향가,4.7,송파구,서울특별시 송파구 송이로 106,중식, 만원-2만원,2022-08-10,맛있다,116.0,100.0,11.0,5.0,3.646551724137932,37.5002912,127.1187956,송파,0.6202175388349822
465,돌마리유황오리,4.7,송파구,서울특별시 송파구 가락로 66,한식,0,2022-08-11,맛있다,20.0,19.0,1.0,0.0,4.465,37.502052,127.1103018,석촌,0.6158006602062795
466,레브어,4.7,송파구,서울특별시 송파구 백제고분로45길 6 1F,다국적음식, 2만원-3만원,2022-03-23,맛있다,14.0,14.0,0.0,0.0,4.7,37.5098718,127.1091841,잠실나루,0.3422393477993418
467,세이류,4.6,송파구,서울특별시 송파구 올림픽로35가길 9 B1 B35호,일식, 4만원 이상,3 일 전,괜찮다,27.0,26.0,1.0,0.0,4.42962962962963,37.5175823,127.1032186,몽촌토성,0.4290778269621678
468,하얼빈양꼬치,4.6,송파구,서울특별시 송파구 백제고분로17길 45 1F,중식, 만원-2만원,2022-08-09,맛있다,43.0,37.0,5.0,1.0,3.744186046511628,37.5070824,127.0857318,잠실,1.3799655760633749
469,콰이어트 크림티,4.5,송파구,서울특별시 송파구 삼전로12길 7,카페/디저트, 만원 미만,2022-07-27,괜찮다,56.0,48.0,6.0,2.0,3.5357142857142856,37.5069676,127.0910786,잠실,1.0012168799293222
470,라미아파밀리아,4.5,송파구,서울특별시 송파구 백제고분로18길 5,양식, 3만원-4만원,2022-05-23,맛있다,20.0,18.0,2.0,0.0,4.05,37.5032917,127.0842407,학여울,1.3840901840483546
471,그곁,4.5,송파구,서울특별시 송파구 오금로18길 14 1F,주점, 2만원-3만원,2022-06-06,맛있다,11.0,11.0,0.0,0.0,4.5,37.5103934,127.1104527,잠실나루,0.261822758793779
472,이치고,4.5,송파구,서울특별시 송파구 백제고분로11길 6-7 1F,주점, 2만원-3만원,2022-06-12,맛있다,7.0,7.0,0.0,0.0,4.5,37.5077031,127.0827745,잠실,1.5864514994546273
473,한아람정육식당,4.4,송파구,서울특별시 송파구 위례성대로 34 지산빌딩 2F,한식, 3만원-4만원,2022-05-07,맛있다,47.0,41.0,5.0,1.0,3.651063829787234,37.5123161,127.1271293,올림픽공원,0.2579546679354814
474,뷰클런즈,4.4,송파구,서울특별시 송파구 백제고분로43길 10,카페/디저트, 만원 미만,2022-08-03,맛있다,48.0,39.0,9.0,0.0,3.5750000000000006,37.5089901,127.1084214,잠실나루,0.3992217010416153
475,부일갈매기,4.4,송파구,서울특별시 송파구 삼전로13길 4,한식, 만원-2만원,2022-06-07,맛있다,28.0,26.0,2.0,0.0,4.085714285714286,37.5078346,127.0851149,잠실,1.3910334778702227
476,비채나,4.4,송파구,서울특별시 송파구 올림픽로 300 롯데월드타워 81F,한식, 4만원 이상,2022-07-11,맛있다,15.0,12.0,3.0,0.0,3.5200000000000005,37.5125366,127.1026546,잠실,0.28824161817665217
477,스시다원,4.4,송파구,서울특별시 송파구 삼전로12길 6 1F,일식, 4만원 이상,2022-05-12,맛있다,15.0,14.0,0.0,1.0,3.5200000000000005,37.5069676,127.0910786,잠실,1.0012168799293222
478,밀각,4.4,송파구,서울특별시 송파구 송파대로28길 27 성원쌍떼빌101동 116호,한식, 2만원-3만원,2022-07-16,맛있다,22.0,21.0,1.0,0.0,4.2,37.495075799999995,127.12071397389175,송파,0.44179118505140585
479,선호커피로스터스,4.4,송파구,서울특별시 송파구 송이로2길 4 1F,카페/디저트, 만원 미만,2022-06-26,맛있다,7.0,7.0,0.0,0.0,4.4,37.5028769,127.1134528,잠실나루,0.6949926432897647
480,라뿔,4.4,송파구,서울특별시 송파구 백제고분로43길 7,카페/디저트, 만원 미만,2022-07-23,맛있다,18.0,17.0,1.0,0.0,4.155555555555556,37.5089901,127.1084214,잠실나루,0.3992217010416153
481,네기우나기야,4.4,송파구,서울특별시 송파구 잠실로 209 소피텔앰배서더 2F,기타, 2만원-3만원,2022-06-10,맛있다,10.0,9.0,1.0,0.0,3.96,37.5140396,127.1065213,잠실,0.6333013670193463
482,생생아구,4.4,송파구,서울특별시 송파구 백제고분로7길 8-37,기타, 3만원-4만원,2022-05-22,맛있다,8.0,7.0,1.0,0.0,3.850000000000001,37.5099232,127.0838851,잠실,1.416227619822058
483,마초야,4.4,송파구,서울특별시 송파구 백제고분로40길 24 1F,일식, 만원 미만,2022-07-27,맛있다,12.0,11.0,1.0,0.0,4.033333333333334,37.5036829,127.1049826,석촌,0.1259935614962391
484,미강식당,4.4,송파구,서울특별시 송파구 백제고분로 122,한식, 만원-2만원,2022-07-18,맛있다,9.0,9.0,0.0,0.0,4.4,37.5052873,127.1073082,석촌,0.38406260630672145
485,토마루해물칼국수,4.4,송파구,서울특별시 송파구 백제고분로15길 6,한식, 만원 미만,2022-07-31,맛있다,6.0,6.0,0.0,0.0,4.4,37.5074415,127.0846105,잠실,1.4498501952543947
486,탄포포,4.4,송파구,서울특별시 송파구 백제고분로7길 52-19 1F,일식, 3만원-4만원,2022-06-19,맛있다,5.0,5.0,0.0,0.0,4.4,37.5099232,127.0838851,잠실,1.416227619822058
487,옥돌현옥,4.3,송파구,서울특별시 송파구 오금로36길 26-1,한식, 만원-2만원,2022-07-15,맛있다,57.0,50.0,7.0,0.0,3.771929824561404,37.5029866,127.1257517,경찰병원,0.09580370219975258
488,신양로스터스,4.3,송파구,서울특별시 송파구 오금로18길 3,카페/디저트, 만원 미만,2022-05-19,괜찮다,35.0,32.0,3.0,0.0,3.931428571428571,37.5103934,127.1104527,잠실나루,0.261822758793779
489,동락,4.3,송파구,서울특별시 송파구 중대로23길 20,한식, 만원-2만원,2022-08-10,맛있다,14.0,13.0,1.0,0.0,3.992857142857143,37.50274295,127.1257910472248,경찰병원,0.06940360054061051
490,브로버거,4.3,송파구,서울특별시 송파구 위례성대로20길 22 정남빌딩 1F,양식, 만원 미만,2 일 전,맛있다,27.0,24.0,2.0,1.0,3.5037037037037035,37.5088407,127.1274724,방이,0.175054990998926
491,오징어세상,4.3,송파구,서울특별시 송파구 백제고분로9길 42 1F,기타, 만원-2만원,3 일 전,맛있다,27.0,23.0,4.0,0.0,3.6629629629629625,37.5091065,127.0794141,학여울,1.634025118767238
492,코끼리 the salad cafe,4.3,송파구,서울특별시 송파구 송파대로37길 92 1F,양식, 만원 미만,2022-04-18,맛있다,11.0,10.0,1.0,0.0,3.909090909090909,37.5001488,127.1111906,송파,0.6726536585710305
493,잠수교집,4.3,송파구,서울특별시 송파구 송파대로49길 51 1F,한식, 만원-2만원,2022-07-12,맛있다,17.0,16.0,1.0,0.0,4.047058823529412,37.5065194,127.1008463,석촌,0.411302327745666
494,원조마포소금구이,4.3,송파구,서울특별시 송파구 오금로11길 34,한식, 만원-2만원,2022-07-16,맛있다,10.0,9.0,1.0,0.0,3.87,37.5153811,127.1109392,잠실나루,0.7189599302268099
495,용기수산,4.3,송파구,서울특별시 송파구 양재대로 932,기타, 3만원-4만원,2022-01-29,맛있다,12.0,10.0,2.0,0.0,3.583333333333333,37.4964535,127.1134771,송파,0.23659886583457126
496,위커파크 웨스트,4.3,송파구,서울특별시 송파구 석촌호수로 230 상가 101호,양식, 만원-2만원,2022-08-06,맛있다,5.0,5.0,0.0,0.0,4.3,37.50742045,127.10223859999999,석촌,0.44964578488579243
497,온수반,4.3,송파구,서울특별시 송파구 백제고분로 469 1F,한식, 만원-2만원,2022-05-23,맛있다,4.0,4.0,0.0,0.0,4.3,37.5052873,127.1073082,석촌,0.38406260630672145
498,오키나와블루 (휴업중),4.2,송파구,서울특별시 송파구 오금로17길 7,양식, 만원 미만,2022-02-11,맛있다,19.0,18.0,0.0,1.0,3.5368421052631582,37.5123539,127.1121547,잠실나루,0.36692701065693467
499,해주찹쌀순대,4.2,송파구,서울특별시 송파구 올림픽로12길 28,한식, 만원 미만,2022-06-01,맛있다,15.0,13.0,2.0,0.0,3.64,37.5072318,127.0844783,잠실,1.4704929810587102
500,자몽하다,4.2,송파구,서울특별시 송파구 백제고분로 438,카페/디저트, 만원 미만,2021-12-26,맛있다,7.0,7.0,0.0,0.0,4.2,37.5052873,127.1073082,석촌,0.38406260630672145
501,그릴210버거 (휴업중),4.2,송파구,서울특별시 송파구 백제고분로 393 황제빌딩 1F,양식, 만원 미만,2022-02-03,맛있다,8.0,7.0,1.0,0.0,3.675,37.5052873,127.1073082,석촌,0.38406260630672145
502,현차이나,4.2,송파구,서울특별시 송파구 백제고분로48길 8,중식, 만원-2만원,2022-04-14,맛있다,7.0,6.0,1.0,0.0,3.6000000000000005,37.5110368,127.1154926,잠실나루,0.3101858419172248
503,오쓰세이로무시,4.1,송파구,서울특별시 송파구 백제고분로45길 30,일식, 2만원-3만원,2022-05-31,맛있다,9.0,8.0,1.0,0.0,3.644444444444444,37.5098718,127.1091841,잠실나루,0.3422393477993418
504,그릭데이,4.1,송파구,서울특별시 송파구 백제고분로 423 1F,카페/디저트, 만원 미만,2022-07-31,맛있다,5.0,5.0,0.0,0.0,4.1,37.5052873,127.1073082,석촌,0.38406260630672145
505,콩당콩당,4.0,송파구,서울특별시 송파구 올림픽로4길 17 아시아선수촌아파트 C상가 2F,카페/디저트, 만원 미만,2021-01-31,맛있다,18.0,17.0,1.0,0.0,3.7777777777777777,37.5068569,127.0746595,학여울,1.2647680778939707
506,효모,4.0,송파구,서울특별시 송파구 석촌호수로12길 20 105호,카페/디저트, 만원 미만,2022-02-15,맛있다,11.0,11.0,0.0,0.0,4.0,37.5080044,127.0860843,잠실,1.3055674443286582
507,춘향골남원추어탕,4.0,송파구,서울특별시 송파구 위례성대로22길 18 이시돌빌딩,기타, 2만원-3만원,2022-05-24,맛있다,19.0,17.0,2.0,0.0,3.5789473684210527,37.5087075,127.1307206,방이,0.4617848786633209
508,파스퇴르 밀크바,4.0,송파구,서울특별시 송파구 올림픽로 240 롯데백화점잠실점 B1,카페/디저트, 만원 미만,2022-01-30,맛있다,30.0,30.0,0.0,0.0,4.0,37.51110405,127.09823334105309,잠실,0.24134141105610013
509,피제리아다븟,4.0,송파구,서울특별시 송파구 백제고분로36길 30 1F,양식, 만원-2만원,2021-12-13,맛있다,9.0,8.0,1.0,0.0,3.555555555555556,37.5027845,127.1007971,석촌,0.25778594359104706
510,이낙근찹쌀떡베이커리,4.0,송파구,서울특별시 송파구 중대로 316,카페/디저트, 만원 미만,2021-12-28,맛있다,17.0,15.0,2.0,0.0,3.5294117647058822,37.50753,127.13288,방이,0.671485177002378
511,수수앤핫커리핫도그,4.0,송파구,서울특별시 송파구 백제고분로28길 10,한식, 만원 미만,2021-03-18,괜찮다,8.0,7.0,1.0,0.0,3.5,37.5000597,127.0927542,종합운동장,0.7242106751885664
512,흥도식당,4.0,송파구,서울특별시 송파구 법원로 114 엠스테이트 B동 B1 155-1호,일식, 만원-2만원,2022-07-31,괜찮다,9.0,8.0,1.0,0.0,3.555555555555556,37.4846593,127.1202013,문정,0.10646105084867684
513,쥬뗑뷔뜨,3.9,송파구,서울특별시 송파구 백제고분로40길 14 1F,카페/디저트, 만원 미만,2022-06-27,맛있다,12.0,11.0,1.0,0.0,3.575,37.5036829,127.1049826,석촌,0.1259935614962391
514,미라이,4.8,강남구,서울특별시 강남구 논현로153길 24 끌레르빌 1F,주점, 3만원-4만원,4 일 전,별로,122.0,104.0,14.0,4.0,3.777049180327869,37.5211124,127.0264506,학동,0.8875871522680788
515,시라카와,4.8,강남구,서울특별시 강남구 선릉로161길 7 1F,주점, 2만원-3만원,2022-05-28,맛있다,66.0,60.0,6.0,0.0,4.363636363636363,37.527588,127.038093,압구정,0.05560677117779916
516,페리지,4.8,강남구,서울특별시 강남구 봉은사로68길 6-5 1F,양식, 3만원-4만원,2022-08-03,맛있다,34.0,29.0,5.0,0.0,4.094117647058823,37.5094827,127.0519282,선정릉,0.45631319922960173
517,맛짱조개,4.8,강남구,서울특별시 강남구 언주로136길 10,기타, 만원-2만원,2022-07-22,괜찮다,59.0,54.0,5.0,0.0,4.393220338983051,37.5174689,127.0370616,논현,0.39856199022805916
518,상진식감,4.8,강남구,서울특별시 강남구 도산대로11길 31-10 B1,일식, 만원-2만원,1 일 전,맛있다,19.0,18.0,1.0,0.0,4.547368421052632,37.5200487,127.0223078,학동,1.0365720882476386
519,스시키,4.7,강남구,서울특별시 강남구 선릉로107길 3-4 운경빌딩 1F,일식, 4만원 이상,2022-07-04,괜찮다,45.0,41.0,3.0,1.0,4.073333333333334,37.5083752,127.042552,언주,0.18215304444090094
520,인딕 슬로우,4.7,강남구,서울특별시 강남구 압구정로4길 13 1F,다국적음식, 만원-2만원,2022-06-19,맛있다,73.0,60.0,13.0,0.0,3.863013698630137,37.5220747,127.0209041,한남,1.261118394712966
521,삐아프,4.7,강남구,서울특별시 강남구 논현로175길 109 1F,카페/디저트, 만원-2만원,2022-06-28,맛있다,78.0,66.0,12.0,0.0,3.976923076923077,37.5227183,127.0210209,한남,1.2198199936589709
522,키겐,4.7,강남구,서울특별시 강남구 언주로150길 51 B1,일식, 3만원-4만원,2022-03-11,맛있다,17.0,16.0,1.0,0.0,4.423529411764706,37.5214451,127.0363397,압구정로데오,0.6219114528212768
523,엘픽,4.7,강남구,서울특별시 강남구 도산대로78길 25 에스앤에스빌딩 1F,양식, 2만원-3만원,2022-05-12,맛있다,8.0,8.0,0.0,0.0,4.7,37.52189,127.046277,청담,0.5164826168395241
524,껠끄쇼즈,4.6,강남구,서울특별시 강남구 도곡로70길 5,카페/디저트, 만원 미만,4 일 전,맛있다,140.0,127.0,10.0,3.0,3.9757142857142855,37.49698145,127.05663767500772,한티,0.34332514878103376
525,농민백암왕순대,4.6,강남구,서울특별시 강남구 역삼로3길 20-4,한식, 만원-2만원,6 일 전,맛있다,267.0,235.0,22.0,10.0,3.704119850187266,37.4947535,127.0312155,강남,0.2987861209693073
526,보트르메종,4.6,강남구,서울특별시 강남구 언주로168길 16 청담스퀘어 2F 224호,다국적음식, 4만원 이상,2022-07-24,맛있다,51.0,44.0,6.0,1.0,3.788235294117647,37.5262555,127.0350992,압구정로데오,0.10490069896635253
527,롸카두들내쉬빌핫치킨,4.6,강남구,서울특별시 강남구 언주로164길 35-3,양식, 만원 미만,4 일 전,맛있다,100.0,84.0,13.0,3.0,3.588,37.5255048,127.0352819,압구정로데오,0.17456749697560095
528,와려,4.6,강남구,서울특별시 강남구 테헤란로98길 28 2F 2호,일식, 4만원 이상,2022-05-14,맛있다,20.0,18.0,2.0,0.0,4.14,37.5065598,127.06283525,역삼,0.7689398426169552
529,르뱅룰즈,4.6,강남구,서울특별시 강남구 선릉로 660 브라운스톤레전드 105호,카페/디저트, 만원 미만,2022-08-09,맛있다,30.0,27.0,3.0,0.0,4.14,37.523126,127.0391626,압구정,0.46906951652042267
530,미우,4.6,강남구,서울특별시 강남구 압구정로 113-22 미성아파트,한식, 3만원-4만원,3 일 전,맛있다,11.0,11.0,0.0,0.0,4.6,37.5240426,127.0221284,한남,1.2077012473543232
531,스시렌,4.6,강남구,서울특별시 강남구 선릉로146길 27-10 2F,일식, 4만원 이상,2022-07-12,맛있다,10.0,10.0,0.0,0.0,4.6,37.5218369,127.0420981,강남구청,0.5435915806800103
532,신비갈비살,4.6,강남구,서울특별시 강남구 강남대로158길 15 1F,한식, 3만원-4만원,2022-06-19,맛있다,26.0,23.0,3.0,0.0,4.069230769230769,37.5195381,127.0212676,학동,1.0769391256934968
533,고메램,4.6,강남구,서울특별시 강남구 삼성로96길 15 송영빌딩,양식, 2만원-3만원,2022-07-25,맛있다,42.0,37.0,5.0,0.0,4.052380952380952,37.50899,127.0572907,역삼,0.4647800197451364
534,왕스덕,4.6,강남구,서울특별시 강남구 도산대로 130 하림타워 B1,중식, 3만원-4만원,2022-06-03,괜찮다,21.0,18.0,2.0,1.0,3.5047619047619047,37.51962,127.0281081,학동,0.6724868169483129
535,돈불리제담,4.6,강남구,서울특별시 강남구 압구정로2길 46 강남상가 1F,한식, 만원-2만원,2022-07-26,맛있다,20.0,20.0,0.0,0.0,4.6,37.518761,127.0206576,학동,1.0787638801497417
536,피아마,4.6,강남구,서울특별시 강남구 도산대로70길 9,주점, 4만원 이상,2022-06-06,맛있다,5.0,5.0,0.0,0.0,4.6,37.5221042,127.0452012,청담,0.604122852264855
537,꼼다비뛰드,4.5,강남구,서울특별시 강남구 강남대로110길 62,카페/디저트, 만원 미만,2022-07-19,맛있다,156.0,141.0,10.0,5.0,3.778846153846154,37.5037347,127.0270998,신논현,0.20708721713580722
538,스시 시미즈,4.5,강남구,서울특별시 강남구 언주로152길 11-3 B1,일식, 4만원 이상,1 일 전,맛있다,27.0,26.0,1.0,0.0,4.333333333333333,37.5224014,127.0335497,압구정로데오,0.5505151171648197
539,쎄쎄종,4.5,강남구,서울특별시 강남구 언주로146길 39 주영빌딩 1F,카페/디저트, 만원 미만,2022-07-14,맛있다,51.0,43.0,7.0,1.0,3.6176470588235294,37.5196589,127.0347851,논현,0.5389534726267352
540,익스퀴진,4.5,강남구,서울특별시 강남구 삼성로140길 6 라파빌딩,한식, 4만원 이상,2022-04-19,맛있다,23.0,22.0,1.0,0.0,4.304347826086956,37.5219591,127.0512432,청담,0.36329043872521016
541,화이트와인개러지,4.5,강남구,서울특별시 강남구 삼성로149길 7 B1,주점, 3만원-4만원,2022-03-28,맛있다,15.0,14.0,1.0,0.0,4.2,37.5231898,127.0474249,청담,0.5679278155799611
542,갓포아키,4.5,강남구,서울특별시 강남구 테헤란로 610 글래드코엑스센터 B2,주점, 4만원 이상,2022-06-21,맛있다,49.0,42.0,6.0,1.0,3.673469387755102,37.50886235,127.0645737,역삼,0.9840308201971363
543,솔밤,4.5,강남구,서울특별시 강남구 도산대로37길 6 4F,한식, 4만원 이상,2022-04-10,맛있다,7.0,6.0,1.0,0.0,3.857142857142857,37.5232765,127.0314116,압구정로데오,0.5681068902807589
544,흐비지떼,4.5,강남구,서울특별시 강남구 삼성로107길 34 1F,카페/디저트, 만원 미만,2022-07-14,괜찮다,21.0,19.0,2.0,0.0,4.071428571428571,37.5111778,127.0522639,선정릉,0.6074169039604517
545,스기타마,4.5,강남구,서울특별시 강남구 삼성로147길 8 101호,주점, 만원-2만원,2021-04-03,맛있다,18.0,17.0,1.0,0.0,4.25,37.5209441,127.0465013,청담,0.43522305884822854
546,구들,4.5,강남구,서울특별시 강남구 선릉로155길 26 3F,주점, 2만원-3만원,2022-03-22,맛있다,9.0,9.0,0.0,0.0,4.5,37.525493,127.0384938,압구정,0.2002859385772698
547,사브서울,4.5,강남구,서울특별시 강남구 논현로175길 6 B1,주점, 3만원-4만원,1 일 전,맛있다,15.0,14.0,1.0,0.0,4.2,37.5227183,127.0210209,한남,1.2198199936589709
548,판동면옥,4.5,강남구,서울특별시 강남구 역삼로77길 5,한식, 만원-2만원,2022-08-03,맛있다,16.0,15.0,1.0,0.0,4.21875,37.5031314,127.0563777,역삼,0.3352837532749899
549,로바타라이브라,4.5,강남구,서울특별시 강남구 선릉로148길 52 B1,주점, 4만원 이상,2022-05-04,맛있다,12.0,10.0,2.0,0.0,3.75,37.5222147,127.0437807,강남구청,0.6110230824214941
550,양재초밥,4.5,강남구,서울특별시 강남구 논현로26길 16 102호,일식, 2만원-3만원,2022-08-05,맛있다,27.0,25.0,2.0,0.0,4.166666666666667,37.4838052,127.0460435,매봉,0.35235014465200853
551,갓포마코토,4.5,강남구,서울특별시 강남구 언주로168길 5 2F,일식, 3만원-4만원,2022-07-27,맛있다,15.0,14.0,0.0,1.0,3.6,37.5262555,127.0350992,압구정로데오,0.10490069896635253
552,챔프커피,4.5,강남구,서울특별시 강남구 테헤란로 517 현대백화점 무역센터점 B1,카페/디저트, 만원 미만,2 일 전,맛있다,33.0,29.0,4.0,0.0,3.954545454545455,37.5086084,127.059745,역삼,0.5922059251779614
553,청우참치,4.5,강남구,서울특별시 강남구 강남대로 632,일식, 4만원 이상,2021-11-30,맛있다,18.0,17.0,1.0,0.0,4.25,37.5119737,127.0210057,신사,0.6820293256815363
554,한상더테이블,4.5,강남구,서울특별시 강남구 선릉로148길 28 3F,한식, 4만원 이상,2022-07-17,맛있다,5.0,5.0,0.0,0.0,4.5,37.5222147,127.0437807,강남구청,0.6110230824214941
555,금복당,4.5,강남구,서울특별시 강남구 영동대로 513 코엑스몰 B1 P103호,한식, 만원-2만원,2022-08-08,맛있다,6.0,6.0,0.0,0.0,4.5,37.5118203,127.0591391,역삼,0.8170047284459772
556,드링크얼랏,4.4,강남구,서울특별시 강남구 학동로56길 49 성림빌딩 1F,카페/디저트, 만원 미만,2022-04-01,맛있다,237.0,205.0,26.0,6.0,3.583122362869199,37.5160268,127.042709,강남구청,0.13206572490658686
557,스시 나미키,4.4,강남구,서울특별시 강남구 학동로 338 강남파라곤 S동 1F 103호,일식, 4만원 이상,2022-05-17,맛있다,43.0,36.0,7.0,0.0,3.683720930232558,37.5199698,127.056947,청담,0.5784807208465054
558,권숙수,4.4,강남구,서울특별시 강남구 언주로170길 27 4F,한식, 4만원 이상,2022-04-22,맛있다,35.0,31.0,4.0,0.0,3.897142857142857,37.5268994,127.0349294,압구정로데오,0.077431669585035
559,임프레션,4.4,강남구,서울특별시 강남구 언주로164길 24 5F,다국적음식, 4만원 이상,2022-08-02,맛있다,30.0,25.0,5.0,0.0,3.666666666666667,37.5255048,127.0352819,압구정로데오,0.17456749697560095
560,농민백암순대,4.4,강남구,서울특별시 강남구 선릉로86길 40-4,한식, 만원 미만,2022-07-26,괜찮다,190.0,163.0,22.0,5.0,3.5431578947368427,37.5035398,127.0500559,선릉,0.14192705850981568
561,가온,4.4,강남구,서울특별시 강남구 도산대로 317 호림아트센터 MF,한식, 4만원 이상,2022-05-04,별로,20.0,18.0,1.0,1.0,3.52,37.51962,127.0281081,학동,0.6724868169483129
562,코슌,4.4,강남구,서울특별시 강남구 언주로153길 14 2F,주점, 4만원 이상,2022-05-17,괜찮다,23.0,19.0,4.0,0.0,3.634782608695653,37.5227284,127.0323848,압구정로데오,0.5641338610684508
563,켄,4.4,강남구,서울특별시 강남구 언주로152길 15-3 2F,일식, 4만원 이상,2022-04-06,괜찮다,21.0,20.0,1.0,0.0,4.190476190476191,37.5224014,127.0335497,압구정로데오,0.5505151171648197
564,르챔버,4.4,강남구,서울특별시 강남구 도산대로55길 42 B1,주점, 3만원-4만원,2022-04-02,맛있다,96.0,81.0,13.0,2.0,3.529166666666667,37.5248925,127.0405292,압구정,0.35565023665781725
565,어물전 청,4.4,강남구,서울특별시 강남구 도산대로49길 16-7 1F,한식, 4만원 이상,2022-06-27,맛있다,17.0,14.0,3.0,0.0,3.6235294117647054,37.5237482,127.0377675,압구정,0.38228015089381634
566,효계,4.4,강남구,서울특별시 강남구 도산대로15길 15 1F,한식, 2만원-3만원,2022-07-12,맛있다,22.0,20.0,2.0,0.0,4.0,37.519595,127.0238249,학동,0.9019791642352919
567,호루몬규상,4.4,강남구,서울특별시 강남구 언주로148길 14 다동 103호,한식, 2만원-3만원,4 일 전,맛있다,20.0,17.0,3.0,0.0,3.7400000000000007,37.5206962,127.0360147,강남구청,0.6566073621908305
568,비플레이트 바이 브라운브레드,4.4,강남구,서울특별시 강남구 논현로24길 41,카페/디저트, 만원 미만,2022-02-12,맛있다,74.0,69.0,3.0,2.0,3.864864864864865,37.4822352,127.0451173,매봉,0.5397865577640879
569,은화계,4.4,강남구,서울특별시 강남구 도산대로 152,한식, 만원-2만원,2022-07-19,괜찮다,23.0,20.0,3.0,0.0,3.8260869565217392,37.51962,127.0281081,학동,0.6724868169483129
570,에비던스,4.4,강남구,서울특별시 강남구 도산대로57길 6 1F,양식, 4만원 이상,2022-03-31,맛있다,12.0,10.0,2.0,0.0,3.6666666666666665,37.5242666,127.0412592,압구정,0.45043319971565055
571,라 티지,4.4,강남구,서울특별시 강남구 선릉로134길 5 1F,카페/디저트, 만원 미만,2022-08-10,맛있다,28.0,24.0,4.0,0.0,3.771428571428572,37.5187752,127.0412233,강남구청,0.20815982601721852
572,비스트로앤트로,4.4,강남구,서울특별시 강남구 논현로159길 12 1F,다국적음식, 2만원-3만원,2022-07-31,맛있다,11.0,10.0,1.0,0.0,4.0,37.5215562,127.0235514,학동,1.0755057388207117
573,티하우스하다,4.4,강남구,서울특별시 강남구 선릉로146길 54 1F,카페/디저트, 3만원-4만원,2022-03-06,맛있다,5.0,5.0,0.0,0.0,4.4,37.5218369,127.0420981,강남구청,0.5435915806800103
574,PDR,4.4,강남구,서울특별시 강남구 언주로134길 24 2F,주점, 2만원-3만원,2022-06-22,맛있다,10.0,10.0,0.0,0.0,4.4,37.5166612,127.03627,논현,0.28549170100554333
575,레아,4.4,강남구,서울특별시 강남구 논현로26길 12-4,양식, 2만원-3만원,2022-06-12,맛있다,17.0,15.0,2.0,0.0,3.882352941176471,37.4817636,127.0443467,매봉,0.6096434168370685
576,크랩52,4.4,강남구,서울특별시 강남구 테헤란로87길 46 트레이드타워 52F,기타, 4만원 이상,2022-06-29,맛있다,7.0,6.0,1.0,0.0,3.771428571428572,37.5107709,127.0582262,역삼,0.6753809043074067
577,논현장어,4.4,강남구,서울특별시 강남구 학동로 106,기타, 2만원-3만원,2021-09-19,맛있다,20.0,18.0,1.0,1.0,3.52,37.5199698,127.056947,청담,0.5784807208465054
578,영동소금구이,4.4,강남구,서울특별시 강남구 강남대로124길 10 1F,한식, 만원-2만원,2022-03-30,맛있다,25.0,22.0,2.0,1.0,3.5200000000000005,37.5092227,127.0228566,신사,0.3957285071678058
579,오마치슌,4.4,강남구,서울특별시 강남구 역삼로65길 20,일식, 3만원-4만원,2022-06-30,맛있다,13.0,13.0,0.0,0.0,4.4,37.5024126,127.0525151,역삼,0.38476663033575637
580,한미옥,4.4,강남구,서울특별시 강남구 봉은사로 319,한식, 4만원 이상,6 일 전,맛있다,6.0,6.0,0.0,0.0,4.4,37.5099037,127.0419072,언주,0.19156924423287325
581,신사치킨클럽,4.4,강남구,서울특별시 강남구 강남대로162길 40 1F,다국적음식, 만원-2만원,2022-08-07,맛있다,15.0,13.0,2.0,0.0,3.8133333333333335,37.5215547,127.0213159,학동,1.2122850629465924
582,쏭타이,4.4,강남구,서울특별시 강남구 테헤란로39길 51 1F 102호,다국적음식, 만원-2만원,2022-07-29,맛있다,19.0,18.0,1.0,0.0,4.16842105263158,37.5054122,127.0405659,언주,0.3532193389496409
583,사케바현,4.4,강남구,서울특별시 강남구 테헤란로39길 55 1F,주점, 2만원-3만원,2022-07-01,맛있다,7.0,7.0,0.0,0.0,4.4,37.5054122,127.0405659,언주,0.3532193389496409
584,야키토리파노,4.4,강남구,서울특별시 강남구 선릉로157길 13-5 1F,주점, 만원-2만원,2022-02-05,맛있다,7.0,7.0,0.0,0.0,4.4,37.5260511,127.0386832,압구정,0.15220313283593784
585,상석,4.4,강남구,서울특별시 강남구 논현로159길 15,일식, 4만원 이상,2022-02-26,괜찮다,7.0,6.0,1.0,0.0,3.771428571428572,37.5215562,127.0235514,학동,1.0755057388207117
586,원포셰,4.4,강남구,서울특별시 강남구 논현로26길 46-8 1F,카페/디저트, 만원 미만,2022-07-17,맛있다,6.0,6.0,0.0,0.0,4.4,37.4817636,127.0443467,매봉,0.6096434168370685
587,비네트,4.4,강남구,서울특별시 강남구 도곡로11길 10 1F,양식, 2만원-3만원,2022-07-31,맛있다,4.0,4.0,0.0,0.0,4.4,37.4928853,127.0350555,삼각지,0.4371991216201834
588,올드페리도넛,4.4,강남구,서울특별시 강남구 강남대로162길 35 1F,카페/디저트, 만원 미만,2022-08-01,맛있다,5.0,5.0,0.0,0.0,4.4,37.5215547,127.0213159,학동,1.2122850629465924
589,플랜튜드,4.4,강남구,서울특별시 강남구 영동대로 513 스타필드 B1-111호,양식, 만원-2만원,2022-07-31,맛있다,5.0,5.0,0.0,0.0,4.4,37.5118203,127.0591391,역삼,0.8170047284459772
590,알라보 (휴업중),4.4,강남구,서울특별시 강남구 언주로71길 31 대봉빌딩 1F,양식, 만원-2만원,2022-06-06,맛있다,4.0,4.0,0.0,0.0,4.4,37.4972165,127.0437033,삼각지,0.47287923613690164
591,파불라,4.3,강남구,서울특별시 강남구 도산대로81길 51 루미안빌딩 1F,중식, 3만원-4만원,5 일 전,맛있다,96.0,84.0,11.0,1.0,3.6729166666666666,37.526885,127.0467541,압구정,0.7975421408280113
592,스시인,4.3,강남구,서울특별시 강남구 압구정로42길 49 3F,일식, 4만원 이상,2022-05-25,맛있다,22.0,20.0,1.0,1.0,3.5181818181818185,37.5240822,127.034101,압구정로데오,0.35929787902094706
593,제스트,4.3,강남구,서울특별시 강남구 도산대로55길 26 하늘빌딩 1F,주점, 2만원-3만원,10 시간 전,맛있다,21.0,19.0,2.0,0.0,3.8904761904761904,37.5248925,127.0405292,압구정,0.35565023665781725
594,모노로그,4.3,강남구,서울특별시 강남구 논현로149길 31,일식, 4만원 이상,2022-01-01,맛있다,19.0,16.0,3.0,0.0,3.621052631578947,37.5162702,127.0238659,학동,0.7072504289607757
595,자이온,4.3,강서구,서울특별시 강서구 공항대로61길 10-11,양식, 만원 미만,2022-07-30,맛있다,23.0,21.0,2.0,0.0,3.926086956521739,37.5513531,126.8659598,등촌,0.11162640605941322
596,원조나주곰탕,4.3,강서구,서울특별시 강서구 양천로14길 10,한식, 만원-2만원,2022-06-17,맛있다,25.0,21.0,4.0,0.0,3.612,37.5693698,126.808835,방화,0.5706302046474121
597,소장식물전,4.3,강서구,서울특별시 강서구 공항대로2길 36,카페/디저트, 만원 미만,2022-07-06,맛있다,12.0,12.0,0.0,0.0,4.3,37.5597981,126.8087123,송정,0.1667262222846418
598,희희잇,4.3,강서구,서울특별시 강서구 마곡중앙4로 22 A동 117호,양식, 만원-2만원,2022-06-01,맛있다,4.0,4.0,0.0,0.0,4.3,37.5580856,126.8353024,발산,0.19427438354149076
599,영양족발순대국,4.2,강서구,서울특별시 강서구 초록마을로2길 48,한식, 만원-2만원,2021-07-29,맛있다,50.0,42.0,8.0,0.0,3.528,37.5447526,126.8447163,화곡,0.45942346294928665
600,사이공윤다이,4.2,강서구,서울특별시 강서구 마곡중앙5로1길 20 218호,다국적음식, 만원 미만,2022-07-24,맛있다,12.0,12.0,0.0,0.0,4.2,37.5707893,126.8267494,마곡나루,0.6488311412098694
601,주방문,4.1,강서구,서울특별시 강서구 마곡중앙로 171 207호,주점, 만원-2만원,2021-12-18,맛있다,6.0,6.0,0.0,0.0,4.1,37.5599103,126.8268895,마곡,0.19977238980292594
602,잔잔하게,4.1,강서구,서울특별시 강서구 마곡서로 158 센트럴타워2 3F 301호,주점, 만원-2만원,2022-07-10,맛있다,9.0,8.0,1.0,0.0,3.644444444444444,37.5574616,126.8231339,마곡,0.3381213350610222
603,오봉집,4.1,강서구,서울특별시 강서구 마곡동로4길 15 2F,기타, 만원-2만원,2022-05-19,맛있다,7.0,7.0,0.0,0.0,4.1,37.5595076,126.8354829,발산,0.16530200200004289
604,마므레 크로와상,4.0,강서구,서울특별시 강서구 공항대로 269-15,카페/디저트, 만원 미만,2022-06-09,맛있다,12.0,11.0,1.0,0.0,3.6666666666666665,37.5611331,126.8122158,공항시장,0.2973659359572679
605,쉐드커피,4.7,강서구,서울특별시 강서구 마곡중앙6로 16 1F,카페/디저트, 만원 미만,2022-05-23,맛있다,4.0,4.0,0.0,0.0,4.7,37.5601401,126.8356108,발산,0.1941975474157178
606,양옥주점,4.5,강서구,서울특별시 강서구 마곡중앙로 161-11 힐스테이트에코 111-2호,중식, 2만원-3만원,2022-06-17,맛있다,3.0,3.0,0.0,0.0,4.5,37.5599103,126.8268895,마곡,0.19977238980292594
607,교대이층집,4.6,강서구,서울특별시 강서구 강서로 381 수창빌딩 2F,한식, 2만원-3만원,2021-11-07,맛있다,13.0,13.0,0.0,0.0,4.6,37.5292654,126.8481558,화곡,2.1958315737790532
608,야키토리토리야,4.6,양천구,서울특별시 양천구 오목로 345 슬로우스퀘어 115호,주점, 3만원-4만원,2022-08-03,괜찮다,13.0,12.0,1.0,0.0,4.246153846153846,37.5249601,126.8715914,신정,0.12896965671979294
609,반쌥,4.5,양천구,서울특별시 양천구 오목로48길 28 1F,다국적음식, 만원-2만원,2022-07-30,맛있다,15.0,13.0,2.0,0.0,3.9,37.5240263,126.8631334,신정,0.8514886231148564
610,아리네,4.0,양천구,서울특별시 양천구 목동동로 222-11,카페/디저트, 만원 미만,2022-07-11,맛있다,7.0,7.0,0.0,0.0,4.0,37.5253655,126.8727219,신정,0.11995641239506387
611,파티세리소나,3.9,양천구,서울특별시 양천구 오목로34길 4,카페/디저트, 만원 미만,2022-03-13,맛있다,27.0,25.0,2.0,0.0,3.611111111111111,37.5239957,126.8557007,신정,1.5068206235062853
612,스시아라타,4.7,영등포구,서울특별시 영등포구 국제금융로8길 16 B1 B124호,일식, 4만원 이상,2022-08-03,맛있다,49.0,42.0,6.0,1.0,3.836734693877551,37.5207125,126.9286332,여의나루,0.25083091633696375
613,바이러닉에스프레소바,4.7,영등포구,서울특별시 영등포구 의사당대로 38 1F,카페/디저트, 만원 미만,2022-08-05,맛있다,28.0,26.0,2.0,0.0,4.364285714285715,37.5242788,126.9219406,여의도,0.35445842691488766
614,히노노리,4.7,영등포구,서울특별시 영등포구 의사당대로 83,일식, 만원-2만원,2022-06-26,맛있다,7.0,7.0,0.0,0.0,4.7,37.5242788,126.9219406,여의도,0.35445842691488766
615,우미노미,4.6,영등포구,서울특별시 영등포구 당산로 180 신우빌딩 1F,일식, 만원-2만원,2022-07-11,괜찮다,79.0,65.0,13.0,1.0,3.668354430379747,37.5340859,126.9019328,당산,0.1173496822142901
616,니와,4.6,영등포구,서울특별시 영등포구 여의나루로 42 2F,일식, 3만원-4만원,5 일 전,맛있다,8.0,8.0,0.0,0.0,4.6,37.5243283,126.9285135,여의도,0.45440713717818787
617,줘마양다리구이,4.5,영등포구,서울특별시 영등포구 도림천로11길 13,중식, 만원-2만원,2022-08-07,맛있다,43.0,35.0,8.0,0.0,3.6627906976744176,37.4916606,126.8975254,대림,0.24488638108709698
618,로바,4.5,영등포구,서울특별시 영등포구 여의대로 108 더현대서울 6F,일식, 4만원 이상,2022-07-27,맛있다,10.0,9.0,1.0,0.0,4.05,37.526659949999996,126.92720561670195,여의도,0.5920320514468308
619,스시다정,4.4,영등포구,서울특별시 영등포구 국제금융로 70 B1 19호,일식, 4만원 이상,2022-08-07,맛있다,7.0,6.0,1.0,0.0,3.771428571428572,37.5174664,126.9350739,샛강,0.40855143638596525
620,잠수교집,4.4,영등포구,서울특별시 영등포구 여의나루로 117 공작상가 B1,한식, 만원-2만원,5 일 전,맛있다,8.0,8.0,0.0,0.0,4.4,37.5243283,126.9285135,여의도,0.45440713717818787
621,온수반,4.4,영등포구,서울특별시 영등포구 양평로22가길 6 1F,한식, 만원 미만,2022-07-16,맛있다,11.0,11.0,0.0,0.0,4.4,37.5389388,126.8929533,선유도,0.13286447527314457
622,렌위치,4.4,영등포구,서울특별시 영등포구 국제금융로 10 IFC몰 L2,양식, 만원 미만,2022-08-09,맛있다,9.0,9.0,0.0,0.0,4.4,37.52538915,126.92663352616975,여의도,0.4425905699240937
623,허리헝그리,4.4,영등포구,서울특별시 영등포구 여의대로 108 더현대서울,양식, 만원-2만원,2022-08-05,맛있다,4.0,4.0,0.0,0.0,4.4,37.526659949999996,126.92720561670195,여의도,0.5920320514468308
624,청기와타운,4.3,영등포구,서울특별시 영등포구 영중로10길 32-4,한식, 2만원-3만원,2022-07-11,맛있다,27.0,22.0,5.0,0.0,3.5037037037037035,37.5188361,126.907861,영등포시장,0.3592157045439067
625,브루클린더버거조인트,4.3,영등포구,서울특별시 영등포구 국제금융로2길 24 삼성생명빌딩 1F,양식, 만원-2만원,2022-06-25,맛있다,40.0,34.0,6.0,0.0,3.655,37.5240224,126.925446,여의도,0.26188287495948864
626,그레이에스프레소,4.3,영등포구,서울특별시 영등포구 여의대방로 379 제일빌딩,카페/디저트, 만원 미만,2022-08-09,맛있다,21.0,19.0,2.0,0.0,3.8904761904761904,37.5190676,126.9310032,여의나루,0.15599860975997032
627,오복수산참치,4.3,영등포구,서울특별시 영등포구 의사당대로 83 오투타워 2F,기타, 2만원-3만원,1 일 전,맛있다,19.0,16.0,3.0,0.0,3.621052631578947,37.5242788,126.9219406,여의도,0.35445842691488766
628,선비네,4.3,영등포구,서울특별시 영등포구 영중로20길 4,한식, 만원-2만원,2022-08-02,맛있다,12.0,11.0,1.0,0.0,3.9416666666666655,37.5211864,126.9078201,영등포시장,0.1088474969132904
629,부일갈비,4.3,영등포구,서울특별시 영등포구 영중로6길 23-8,한식, 만원-2만원,2022-06-10,맛있다,9.0,9.0,0.0,0.0,4.3,37.5178319,126.9085102,영등포,0.30808016567902324
630,서민준밀밭,4.3,영등포구,서울특별시 영등포구 영신로40길 22-1,한식, 만원 미만,2022-07-29,맛있다,12.0,10.0,2.0,0.0,3.583333333333333,37.5213018,126.9026711,영등포시장,0.5150072254111838
631,타이문,4.3,영등포구,서울특별시 영등포구 선유로17길 24 1F,다국적음식, 만원 미만,2022-07-28,맛있다,9.0,9.0,0.0,0.0,4.3,37.520785,126.8873879,양평,0.413896937528579
632,별미볶음점,4.3,영등포구,서울특별시 영등포구 국제금융로6길 33 여의도백화점,한식, 만원-2만원,2022-08-01,맛있다,13.0,12.0,1.0,0.0,3.969230769230769,37.520739750000004,126.92695271725268,여의도,0.24891771863954487
633,유어보울,4.3,영등포구,서울특별시 영등포구 문래로 180 1동 1F 상가108호,양식, 만원-2만원,6 일 전,맛있다,7.0,6.0,1.0,0.0,3.6857142857142855,37.518591,126.8993316,합정,0.4429974374126579
634,도림186,4.3,영등포구,서울특별시 영등포구 도영로 44,중식, 만원 미만,2022-07-03,맛있다,7.0,7.0,0.0,0.0,4.3,37.50898,126.89681,신도림,0.5119231232625983
635,제주흑돈카츠,4.3,영등포구,서울특별시 영등포구 영중로 9,일식, 만원-2만원,2022-07-21,맛있다,5.0,5.0,0.0,0.0,4.3,37.5311849,126.9057521,당산,0.49448063336495607
636,까폼,4.3,영등포구,서울특별시 영등포구 여의대로 108 여의도 파크원 B1,다국적음식, 만원-2만원,2022-07-06,괜찮다,7.0,6.0,1.0,0.0,3.6857142857142855,37.526659949999996,126.92720561670195,여의도,0.5920320514468308
637,우동가게,4.2,영등포구,서울특별시 영등포구 당산로 180 신우빌딩,한식, 만원 미만,1 시간 전,괜찮다,18.0,15.0,3.0,0.0,3.5,37.5340859,126.9019328,당산,0.1173496822142901
638,어만두,4.2,영등포구,서울특별시 영등포구 의사당대로 127 S-Trenue빌딩 B1,한식, 만원-2만원,2022-08-11,괜찮다,14.0,12.0,2.0,0.0,3.6000000000000005,37.520263,126.926291,여의도,0.23467327295507248
639,더미,4.2,영등포구,서울특별시 영등포구 국제금융로2길 28 KB금융타워 B1,한식, 4만원 이상,6 일 전,맛있다,14.0,12.0,2.0,0.0,3.6000000000000005,37.5240224,126.925446,여의도,0.26188287495948864
640,도쿄라보,4.2,영등포구,서울특별시 영등포구 도림로 438-12,일식, 만원-2만원,2022-04-17,맛있다,6.0,5.0,1.0,0.0,3.5,37.5159068,126.8915583,합정,0.6252711240189784
641,마얘,4.2,영등포구,서울특별시 영등포구 여의대로 108 현대백화점 B1,카페/디저트, 만원 미만,2022-04-01,맛있다,5.0,5.0,0.0,0.0,4.2,37.526659949999996,126.92720561670195,여의도,0.5920320514468308
642,브로트아트,4.1,영등포구,서울특별시 영등포구 국제금융로7길 3 수정상가 1F,카페/디저트, 만원 미만,9 시간 전,맛있다,12.0,11.0,1.0,0.0,3.758333333333333,37.5248101,126.9352732,여의나루,0.5926948692856961
643,비어포스트바,4.1,영등포구,서울특별시 영등포구 도림로131길 15,주점, 만원 미만,2022-07-11,맛있다,13.0,12.0,1.0,0.0,3.784615384615385,37.5139884,126.8947378,합정,0.33792640543123076
644,호우양꼬치,4.1,영등포구,서울특별시 영등포구 영중로10길 6 델리타운 102호,중식, 만원-2만원,2022-02-15,맛있다,11.0,10.0,1.0,0.0,3.727272727272727,37.5188361,126.907861,영등포시장,0.3592157045439067
645,동해반점,4.0,영등포구,서울특별시 영등포구 시흥대로 639,중식, 만원 미만,2022-06-25,맛있다,17.0,15.0,2.0,0.0,3.5294117647058822,37.4923428,126.9091454,신대방,0.635513187758728
646,아우어베이커리,4.0,영등포구,서울특별시 영등포구 경인로 843 1F,카페/디저트, 만원 미만,2022-06-20,맛있다,9.0,8.0,1.0,0.0,3.555555555555556,37.5179124,126.9113028,영등포,0.4896649414016853
647,크로닉,3.9,영등포구,서울특별시 영등포구 당산로35길 7,카페/디저트, 만원 미만,2022-01-10,맛있다,10.0,9.0,1.0,0.0,3.51,37.5290288,126.8968671,영등포구청,0.37566797977376265
648,브레드05,3.9,영등포구,서울특별시 영등포구 여의대방로43나길 4,카페/디저트, 만원 미만,2021-10-07,맛있다,25.0,23.0,2.0,0.0,3.588,37.5068662,126.9210845,보라매,0.31562677525109495
649,카페노티드,3.9,영등포구,서울특별시 영등포구 국제금융로 10 IFC몰,카페/디저트, 만원 미만,2022-07-12,맛있다,5.0,5.0,0.0,0.0,3.9,37.52538915,126.92663352616975,여의도,0.4425905699240937
650,작은피자집,4.8,동작구, 서울특별시 동작구 사당로30길 96,양식, 만원-2만원,2022-08-12,맛있다,60.0,54.0,5.0,1.0,4.159999999999999,37.4822523,126.9808693,총신대입구,0.4140927400439469
651,운봉산장양고기전문점,4.6,동작구, 서울특별시 동작구 장승배기로 118-1,한식, 2만원-3만원,2022-08-13,맛있다,46.0,39.0,6.0,1.0,3.6999999999999993,37.5019516,126.9405933,장승배기,0.42937612719170437
652,서평면옥,4.4,동작구, 서울특별시 동작구 보라매로5길 15 B1,한식, 만원 미만,6 일 전,맛있다,22.0,21.0,1.0,0.0,4.2,37.4927106,126.9248886,신대방삼거리,0.8254616835291864
653,고우마구로,4.4,동작구, 서울특별시 동작구 양녕로 249,일식, 2만원-3만원,2022-04-20,맛있다,6.0,6.0,0.0,0.0,4.4,37.5134181,126.9559868,노들,0.26086524643118025
654,다독이네 숯불구이,4.3,동작구, 서울특별시 동작구 노량진로 106-5 1F,한식, 만원 미만,2022-03-31,맛있다,25.0,23.0,2.0,0.0,3.956,37.5131792,126.9287372,대방,0.2156538824882664
655,소라노호시,4.3,동작구, 서울특별시 동작구 동작대로27길 16-5,주점, 3만원-4만원,2022-05-19,맛있다,9.0,9.0,0.0,0.0,4.3,37.4882452,126.9790527,총신대입구,0.3541669236613853
656,등나무집,4.3,동작구, 서울특별시 동작구 대림로 52,한식, 만원-2만원,6 일 전,맛있다,22.0,18.0,4.0,0.0,3.5181818181818176,37.4875013,126.9128002,신대방,0.01690022950860775
657,오꼬노미스토리,4.3,동작구, 서울특별시 동작구 노량진로10길 27,일식, 만원-2만원,2022-04-19,괜찮다,22.0,18.0,4.0,0.0,3.5181818181818176,37.5114189,126.9376777,노량진,0.5597613604058127
658,청와옥,4.3,동작구, 서울특별시 동작구 동작대로 71,한식, 만원-2만원,2022-05-26,맛있다,9.0,8.0,1.0,0.0,3.822222222222222,37.5055157,126.9802738,동작,0.23010960244780282
659,가마솥손두부,4.3,동작구, 서울특별시 동작구 남부순환로271길 20,한식, 만원 미만,2022-01-19,맛있다,7.0,7.0,0.0,0.0,4.3,37.479302,126.9796508,사당,0.3507303387017098
660,정작가의 막걸리집,4.1,동작구, 서울특별시 동작구 동작대로33가길 5 1F,주점, 만원-2만원,2022-07-16,맛있다,17.0,15.0,2.0,0.0,3.617647058823529,37.4895389,126.9817551,총신대입구,0.40396522827880116
661,조복남,4.1,동작구, 서울특별시 동작구 사당로17다길 9 B201호,카페/디저트, 만원 미만,2022-05-29,맛있다,6.0,6.0,0.0,0.0,4.1,0.0,0.0,개화,13158.583793832535
662,상도실내포장마차,4.1,동작구, 서울특별시 동작구 상도로 288,주점, 만원-2만원,2022-06-01,맛있다,17.0,16.0,1.0,0.0,3.858823529411764,37.5018936,126.9487807,상도,0.15945837798937856
663,와플스,4.1,동작구, 서울특별시 동작구 노량진로16길 26 1F,카페/디저트, 만원 미만,2022-06-27,맛있다,10.0,10.0,0.0,0.0,4.1,37.5123177,126.943962,노량진,0.2149385068082474
664,가춘,4.0,동작구, 서울특별시 동작구 상도로 357,카페/디저트, 만원 미만,2020-10-30,괜찮다,15.0,14.0,1.0,0.0,3.733333333333333,37.5018936,126.9487807,상도,0.15945837798937856
665,파동추야,4.0,동작구, 서울특별시 동작구 상도로58길 4 경원빌딩,한식, 만원 미만,2022-03-25,맛있다,16.0,14.0,2.0,0.0,3.5,37.4949566,126.9520593,숭실대입구,0.22049721094087235
666,미학당,3.9,동작구, 서울특별시 동작구 사당로 56 2F,카페/디저트, 만원 미만,2022-06-17,맛있다,25.0,23.0,2.0,0.0,3.588,37.4946982,126.9608044,숭실대입구,0.5536225880460908
667,블랑제리꾸끄,3.9,동작구, 서울특별시 동작구 만양로 37,카페/디저트, 만원 미만,2021-10-19,맛있다,20.0,18.0,2.0,0.0,3.51,37.5096477,126.9455378,장승배기,0.5322829195890475
668,조가네갑오징어,3.9,동작구, 서울특별시 동작구 남부순환로271길 24 1F,한식, 2만원-3만원,2022-06-28,맛있다,6.0,6.0,0.0,0.0,3.9,37.479302,126.9796508,사당,0.3507303387017098
669,나루,4.6,동작구, 서울특별시 동작구 상도로 120 핸드픽트호텔 9F,한식, 2만원-3만원,2020-04-06,괜찮다,10.0,9.0,1.0,0.0,4.14,37.5018936,126.9487807,상도,0.15945837798937856
670,탭하우스어반,4.5,동작구, 서울특별시 동작구 동작대로25길 46,주점, 만원 미만,2022-01-18,맛있다,9.0,9.0,0.0,0.0,4.5,37.4855197,126.9803868,총신대입구,0.1299663241436185
671,메종조,4.7,서초구, 서울특별시 서초구 반포대로7길 35 공아트빌딩 1F,다국적음식, 2만원-3만원,3 일 전,맛있다,26.0,26.0,0.0,0.0,4.7,37.4823456,127.0114598,서초,0.9131638273625989
672,밴건디 스테이크 하우스,4.6,서초구, 서울특별시 서초구 사평대로22길 5,양식, 4만원 이상,4 일 전,맛있다,141.0,124.0,14.0,3.0,3.849645390070922,37.4969808,126.997583,신반포,0.7504621330909074
673,서관면옥,4.6,서초구, 서울특별시 서초구 서초대로56길 11,한식, 만원-2만원,3 일 전,맛있다,165.0,138.0,21.0,6.0,3.5127272727272727,37.4932165,127.0174313,교대,0.2979600869291093
674,스시 윤슬,4.6,서초구, 서울특별시 서초구 서초대로 266 B101호,일식, 4만원 이상,2022-04-09,맛있다,15.0,14.0,1.0,0.0,4.293333333333333,37.4979756,127.0274773,강남,0.20672078597036822
675,옥토스,4.6,서초구, 서울특별시 서초구 사평대로52길 11 1F,기타, 4만원 이상,2022-07-06,맛있다,10.0,10.0,0.0,0.0,4.6,37.502432,127.0225413,신논현,0.32504430304932397
676,스시야스다,4.6,서초구, 서울특별시 서초구 서초대로58길 18 지에스타워 2F,일식, 4만원 이상,2022-05-28,맛있다,4.0,4.0,0.0,0.0,4.6,37.4933956,127.0186688,교대,0.4028484883179201
677,소울브레드,4.5,서초구, 서울특별시 서초구 바우뫼로7길 27 동양상가,카페/디저트, 만원 미만,2022-06-30,맛있다,112.0,98.0,12.0,2.0,3.7767857142857135,37.4712518,127.0246111,양재시민의숲,1.090109389425801
678,더 마고 그릴,4.5,서초구, 서울특별시 서초구 신반포로 176 JW메리어트 호텔 서울 7F,양식, 4만원 이상,2022-04-30,맛있다,20.0,18.0,2.0,0.0,4.05,37.5019024,126.989635,구반포,0.30036502133179765
679,크레미엘,4.5,서초구, 서울특별시 서초구 양재천로21길 3 디와이빌딩 1F,카페/디저트, 만원 미만,2022-07-02,맛있다,15.0,15.0,0.0,0.0,4.5,37.4771186,127.0393355,양재시민의숲,0.9774641505108314
680,FOURB,4.5,서초구, 서울특별시 서초구 사평대로 205 1F FP106호,카페/디저트, 만원 미만,2022-05-18,맛있다,18.0,18.0,0.0,0.0,4.5,37.4986031,126.9860896,구반포,0.35178667845866946
681,모트32,4.5,서초구, 서울특별시 서초구 신반포로 176 3F,중식, 4만원 이상,2022-05-31,맛있다,6.0,6.0,0.0,0.0,4.5,37.5019024,126.989635,구반포,0.30036502133179765
682,남부럽지않은고기한상,4.5,서초구, 서울특별시 서초구 효령로52길 5,한식, 만원-2만원,2022-07-30,맛있다,6.0,6.0,0.0,0.0,4.5,37.4829293,127.0131062,서초,0.8863814823940107
683,스시금강,4.4,서초구, 서울특별시 서초구 효령로 307 부속12상가 106호,일식, 4만원 이상,2022-06-22,맛있다,19.0,16.0,3.0,0.0,3.705263157894737,37.484077,127.0114198,서초,0.7232028810254739
684,키세츠스시,4.4,서초구, 서울특별시 서초구 방배천로4안길 18 1F,일식, 4만원 이상,2022-07-21,괜찮다,16.0,15.0,1.0,0.0,4.125,37.4805276,126.9833508,사당,0.48060988563352813
685,신사약방,4.4,서초구, 서울특별시 서초구 나루터로12길 35 1F,한식, 만원-2만원,2022-07-29,맛있다,13.0,11.0,2.0,0.0,3.723076923076924,37.5143727,127.017848,잠원,1.0561002409249474
686,무드서울,4.4,서초구, 서울특별시 서초구 올림픽대로 2085-14 솔빛섬 1-2F,주점, 만원-2만원,2022-08-05,맛있다,10.0,10.0,0.0,0.0,4.4,37.5096561,126.998354,고속터미널,0.597715295925169
687,신숙,4.4,서초구, 서울특별시 서초구 법원로3길 21 이정빌딩,한식, 만원 미만,2022-06-09,괜찮다,45.0,39.0,6.0,0.0,3.813333333333334,37.4932032,127.0084843,서초,0.32665237071723996
688,앙띠크,4.4,서초구, 서울특별시 서초구 서초중앙로20길 14,카페/디저트, 만원 미만,3 일 전,맛있다,26.0,22.0,4.0,0.0,3.723076923076924,37.4923087,127.0151913,교대,0.18781944610156134
689,모멍데모시옹,4.4,서초구, 서울특별시 서초구 반포대로3길 31,카페/디저트, 만원 미만,2022-06-12,맛있다,16.0,16.0,0.0,0.0,4.4,37.4812559,127.0090102,서초,1.0241878671850984
690,반티엔야오카오위,4.4,서초구, 서울특별시 서초구 서초대로73길 12 세계빌딩 1F,중식, 2만원-3만원,2022-07-28,맛있다,23.0,19.0,4.0,0.0,3.634782608695653,37.5011402,127.0241044,신논현,0.3926463546858809
691,케빈의집,4.4,서초구, 서울특별시 서초구 서초대로29길 17-2 1F,양식, 만원-2만원,2022-07-23,맛있다,5.0,5.0,0.0,0.0,4.4,37.4887461,126.9954567,내방,0.20574335126164922
692,시올돈,4.4,서초구, 서울특별시 서초구 청두곶길 6-1 1F,일식, 만원-2만원,2022-08-02,맛있다,10.0,9.0,1.0,0.0,3.96,37.4823647,126.9856137,총신대입구,0.5192919602747561
693,태양커피,4.4,서초구, 서울특별시 서초구 방배천로 32 송암빌딩 1F,카페/디저트, 만원 미만,2022-08-14,맛있다,18.0,16.0,2.0,0.0,3.911111111111112,37.487603,126.9852537,총신대입구,0.3601495120795833
694,비스테까,4.4,서초구, 서울특별시 서초구 신반포로 176 신세계백화점 강남점 B1,카페/디저트, 만원-2만원,2022-05-24,맛있다,23.0,20.0,3.0,0.0,3.8260869565217392,37.5019024,126.989635,구반포,0.30036502133179765
695,레프레미스,4.3,서초구, 서울특별시 서초구 남부순환로337길 36,카페/디저트, 만원 미만,2021-11-24,맛있다,119.0,103.0,15.0,1.0,3.649579831932773,37.4837298,127.021321,양재,1.0688049507900388
696,플레이버즈,4.3,서초구, 서울특별시 서초구 신반포로 176 JW메리어트 호텔 서울 2F,기타, 4만원 이상,2022-06-19,맛있다,35.0,31.0,4.0,0.0,3.808571428571428,37.5019024,126.989635,구반포,0.30036502133179765
697,푸드더즈매터,4.3,서초구, 서울특별시 서초구 서래로1길 10 1F,양식, 만원-2만원,2022-06-09,맛있다,25.0,21.0,4.0,0.0,3.612,37.496141,126.9974994,신반포,0.8429884683659876
698,천년식향,4.3,서초구, 서울특별시 서초구 효령로 316-1 3F,양식, 4만원 이상,2022-06-07,괜찮다,18.0,15.0,3.0,0.0,3.583333333333333,37.484077,127.0114198,서초,0.7232028810254739
